rosbagTimestamp,header,seq,stamp,secs,nsecs,frame_id,orientation,x,y,z,w,orientation_covariance,angular_velocity,x,y,z,angular_velocity_covariance,linear_acceleration,x,y,z,linear_acceleration_covariance
1501822123031317949,,5,,1501822123,31317949,"""imu""",,0.00502299228152,0.0148102874195,0.587497167391,0.809075091226,"[0.0, 0.0, 0.0, 0.0, 0.0, 0.0, 0.0, 0.0, 0.0]",,0.00243092199975,0.00147677744006,0.000696980206118,"[0.0, 0.0, 0.0, 0.0, 0.0, 0.0, 0.0, 0.0, 0.0]",,0.165241226554,-0.0263445768505,0.0761191099882,"[0.0, 0.0, 0.0, 0.0, 0.0, 0.0, 0.0, 0.0, 0.0]"
1501822123039287090,,69,,1501822123,39287090,"""imu""",,0.00502016313871,0.0148176179537,0.587498630763,0.809073911958,"[0.0, 0.0, 0.0, 0.0, 0.0, 0.0, 0.0, 0.0, 0.0]",,0.000800770732839,0.00304714678723,0.000719217536202,"[0.0, 0.0, 0.0, 0.0, 0.0, 0.0, 0.0, 0.0, 0.0]",,0.210250526667,-0.0399504490197,0.109380699694,"[0.0, 0.0, 0.0, 0.0, 0.0, 0.0, 0.0, 0.0, 0.0]"
1501822123041313886,,88,,1501822123,41313886,"""imu""",,0.00501505175173,0.0148239399276,0.587499374722,0.809073287633,"[0.0, 0.0, 0.0, 0.0, 0.0, 0.0, 0.0, 0.0, 0.0]",,-0.000171690308924,0.00325233840781,0.000344483560552,"[0.0, 0.0, 0.0, 0.0, 0.0, 0.0, 0.0, 0.0, 0.0]",,0.202962845564,-0.0380456373096,0.099707685411,"[0.0, 0.0, 0.0, 0.0, 0.0, 0.0, 0.0, 0.0, 0.0]"
1501822123049295902,,158,,1501822123,49295902,"""imu""",,0.00501007300426,0.0148288553874,0.587500915767,0.809072109388,"[0.0, 0.0, 0.0, 0.0, 0.0, 0.0, 0.0, 0.0, 0.0]",,-0.000462910485127,0.00277086332971,0.000736222691011,"[0.0, 0.0, 0.0, 0.0, 0.0, 0.0, 0.0, 0.0, 0.0]",,0.175641566515,-0.0340904034674,0.0268255006522,"[0.0, 0.0, 0.0, 0.0, 0.0, 0.0, 0.0, 0.0, 0.0]"
1501822123051310062,,179,,1501822123,51310062,"""imu""",,0.00500905806906,0.0148306537869,0.58750161158,0.809071577449,"[0.0, 0.0, 0.0, 0.0, 0.0, 0.0, 0.0, 0.0, 0.0]",,9.11008014442e-05,0.000825071752693,0.000340559038984,"[0.0, 0.0, 0.0, 0.0, 0.0, 0.0, 0.0, 0.0, 0.0]",,0.139859691262,-0.0577830709517,-0.0230523850769,"[0.0, 0.0, 0.0, 0.0, 0.0, 0.0, 0.0, 0.0, 0.0]"
1501822123059303045,,245,,1501822123,59303045,"""imu""",,0.00500845483244,0.0148294420883,0.58750409654,0.809069798952,"[0.0, 0.0, 0.0, 0.0, 0.0, 0.0, 0.0, 0.0, 0.0]",,-0.000491151891083,-0.000234849521346,0.00122099109029,"[0.0, 0.0, 0.0, 0.0, 0.0, 0.0, 0.0, 0.0, 0.0]",,0.130596190691,-0.0515949837863,-0.0598549209535,"[0.0, 0.0, 0.0, 0.0, 0.0, 0.0, 0.0, 0.0, 0.0]"
1501822123061312913,,266,,1501822123,61312913,"""imu""",,0.00501203439471,0.0148294241841,0.587505879965,0.80906848208,"[0.0, 0.0, 0.0, 0.0, 0.0, 0.0, 0.0, 0.0, 0.0]",,0.00114629553346,-0.000835612240001,0.00090789216148,"[0.0, 0.0, 0.0, 0.0, 0.0, 0.0, 0.0, 0.0, 0.0]",,0.114446215332,-0.0296820215881,-0.0797776654363,"[0.0, 0.0, 0.0, 0.0, 0.0, 0.0, 0.0, 0.0, 0.0]"
1501822123069293022,,331,,1501822123,69293022,"""imu""",,0.00501701658839,0.0148303892879,0.587508207767,0.809066743171,"[0.0, 0.0, 0.0, 0.0, 0.0, 0.0, 0.0, 0.0, 0.0]",,0.00182885071713,-0.000843510177108,0.00118959608809,"[0.0, 0.0, 0.0, 0.0, 0.0, 0.0, 0.0, 0.0, 0.0]",,0.126728281379,-0.0263759512454,-0.035079665482,"[0.0, 0.0, 0.0, 0.0, 0.0, 0.0, 0.0, 0.0, 0.0]"
1501822123071316003,,352,,1501822123,71316003,"""imu""",,0.00501938621073,0.0148324884316,0.587509800598,0.809065533347,"[0.0, 0.0, 0.0, 0.0, 0.0, 0.0, 0.0, 0.0, 0.0]",,0.00125315565242,0.000132842803785,0.000809629449523,"[0.0, 0.0, 0.0, 0.0, 0.0, 0.0, 0.0, 0.0, 0.0]",,0.134727805853,-0.0413604974747,0.0734614729881,"[0.0, 0.0, 0.0, 0.0, 0.0, 0.0, 0.0, 0.0, 0.0]"
1501822123079293966,,417,,1501822123,79293966,"""imu""",,0.00501872040671,0.0148330224631,0.587511875453,0.809064021009,"[0.0, 0.0, 0.0, 0.0, 0.0, 0.0, 0.0, 0.0, 0.0]",,-9.92454271768e-05,0.000342431314051,0.00102185022893,"[0.0, 0.0, 0.0, 0.0, 0.0, 0.0, 0.0, 0.0, 0.0]",,0.160274028778,-0.0257900226861,0.0996720045805,"[0.0, 0.0, 0.0, 0.0, 0.0, 0.0, 0.0, 0.0, 0.0]"
1501822123089288949,,492,,1501822123,89288949,"""imu""",,0.00500899560214,0.0148388287159,0.587516565863,0.809060568785,"[0.0, 0.0, 0.0, 0.0, 0.0, 0.0, 0.0, 0.0, 0.0]",,-0.00152559013997,0.00288013199699,0.000944518428698,"[0.0, 0.0, 0.0, 0.0, 0.0, 0.0, 0.0, 0.0, 0.0]",,0.147683680058,-0.0119986757636,0.00674845650792,"[0.0, 0.0, 0.0, 0.0, 0.0, 0.0, 0.0, 0.0, 0.0]"
1501822123091317892,,515,,1501822123,91317892,"""imu""",,0.00500073355678,0.0148420333937,0.58751702671,0.809060226457,"[0.0, 0.0, 0.0, 0.0, 0.0, 0.0, 0.0, 0.0, 0.0]",,-0.00192272194407,0.00298169648255,0.000174121418697,"[0.0, 0.0, 0.0, 0.0, 0.0, 0.0, 0.0, 0.0, 0.0]",,0.128410130739,-0.0262165796012,-0.0415238700807,"[0.0, 0.0, 0.0, 0.0, 0.0, 0.0, 0.0, 0.0, 0.0]"
1501822123099315881,,578,,1501822123,99315881,"""imu""",,0.00499396299192,0.0148456861305,0.587518231853,0.809059326117,"[0.0, 0.0, 0.0, 0.0, 0.0, 0.0, 0.0, 0.0, 0.0]",,-0.00133805119425,0.0027809919243,0.000554087829696,"[0.0, 0.0, 0.0, 0.0, 0.0, 0.0, 0.0, 0.0, 0.0]",,0.120528846979,-0.0481655262411,-0.0765207782388,"[0.0, 0.0, 0.0, 0.0, 0.0, 0.0, 0.0, 0.0, 0.0]"
1501822123101306915,,602,,1501822123,101306915,"""imu""",,0.00498891914448,0.0148481786042,0.587519800953,0.809058172053,"[0.0, 0.0, 0.0, 0.0, 0.0, 0.0, 0.0, 0.0, 0.0]",,-0.00105356973887,0.00200194760553,0.000744070953923,"[0.0, 0.0, 0.0, 0.0, 0.0, 0.0, 0.0, 0.0, 0.0]",,0.121403582394,-0.0534159168601,-0.113157771528,"[0.0, 0.0, 0.0, 0.0, 0.0, 0.0, 0.0, 0.0, 0.0]"
1501822123109278917,,665,,1501822123,109278917,"""imu""",,0.00498679322166,0.0148482680365,0.58752211171,0.809056505493,"[0.0, 0.0, 0.0, 0.0, 0.0, 0.0, 0.0, 0.0, 0.0]",,-0.000677378534265,0.000543058857788,0.00112665342005,"[0.0, 0.0, 0.0, 0.0, 0.0, 0.0, 0.0, 0.0, 0.0]",,0.129607379436,-0.0337057746947,-0.108380317688,"[0.0, 0.0, 0.0, 0.0, 0.0, 0.0, 0.0, 0.0, 0.0]"
1501822123111320018,,688,,1501822123,111320018,"""imu""",,0.00498821197306,0.0148487943699,0.587524136875,0.809055016446,"[0.0, 0.0, 0.0, 0.0, 0.0, 0.0, 0.0, 0.0, 0.0]",,0.000573773895668,-0.000150202643083,0.00101269424729,"[0.0, 0.0, 0.0, 0.0, 0.0, 0.0, 0.0, 0.0, 0.0]",,0.115544654429,-0.0130660878494,-0.0831608697772,"[0.0, 0.0, 0.0, 0.0, 0.0, 0.0, 0.0, 0.0, 0.0]"
1501822123119324922,,724,,1501822123,119324922,"""imu""",,0.00499242103408,0.0148462405159,0.58752652177,0.80905330547,"[0.0, 0.0, 0.0, 0.0, 0.0, 0.0, 0.0, 0.0, 0.0]",,0.000751211099466,-0.00180072901038,0.00120398522028,"[0.0, 0.0, 0.0, 0.0, 0.0, 0.0, 0.0, 0.0, 0.0]",,0.103472217917,-0.0144143784419,-0.0332495458424,"[0.0, 0.0, 0.0, 0.0, 0.0, 0.0, 0.0, 0.0, 0.0]"
1501822123121309995,,746,,1501822123,121309995,"""imu""",,0.00499396500267,0.0148415227921,0.58752781677,0.80905244208,"[0.0, 0.0, 0.0, 0.0, 0.0, 0.0, 0.0, 0.0, 0.0]",,-0.000615019212939,-0.00188188754423,0.00064057658684,"[0.0, 0.0, 0.0, 0.0, 0.0, 0.0, 0.0, 0.0, 0.0]",,0.100450761616,0.000852501951158,-0.028319645673,"[0.0, 0.0, 0.0, 0.0, 0.0, 0.0, 0.0, 0.0, 0.0]"
1501822123129297018,,810,,1501822123,129297018,"""imu""",,0.00499601199233,0.0148356761497,0.587529112167,0.809051595965,"[0.0, 0.0, 0.0, 0.0, 0.0, 0.0, 0.0, 0.0, 0.0]",,-0.000717575817024,-0.00236554607633,0.000641885215826,"[0.0, 0.0, 0.0, 0.0, 0.0, 0.0, 0.0, 0.0, 0.0]",,0.102855555713,0.0157459620386,-0.0298720858991,"[0.0, 0.0, 0.0, 0.0, 0.0, 0.0, 0.0, 0.0, 0.0]"
1501822123131309986,,832,,1501822123,131309986,"""imu""",,0.00499451666867,0.0148335612346,0.587530254819,0.809050814187,"[0.0, 0.0, 0.0, 0.0, 0.0, 0.0, 0.0, 0.0, 0.0]",,-0.000986163155114,-0.000326088406002,0.000548856304608,"[0.0, 0.0, 0.0, 0.0, 0.0, 0.0, 0.0, 0.0, 0.0]",,0.0893258154392,0.00425786711276,-0.0513570159674,"[0.0, 0.0, 0.0, 0.0, 0.0, 0.0, 0.0, 0.0, 0.0]"
1501822123139296054,,897,,1501822123,139296054,"""imu""",,0.00499277355321,0.0148321770083,0.587530610509,0.809050592023,"[0.0, 0.0, 0.0, 0.0, 0.0, 0.0, 0.0, 0.0, 0.0]",,-0.000891082127433,-3.62817540743e-05,0.000159733554369,"[0.0, 0.0, 0.0, 0.0, 0.0, 0.0, 0.0, 0.0, 0.0]",,0.0922374352813,-0.00772191956639,-0.0517020374537,"[0.0, 0.0, 0.0, 0.0, 0.0, 0.0, 0.0, 0.0, 0.0]"
1501822123141313076,,918,,1501822123,141313076,"""imu""",,0.00498927983366,0.0148349109013,0.587530374049,0.809050735167,"[0.0, 0.0, 0.0, 0.0, 0.0, 0.0, 0.0, 0.0, 0.0]",,-0.000487021748252,0.0017044848653,-0.000136359845776,"[0.0, 0.0, 0.0, 0.0, 0.0, 0.0, 0.0, 0.0, 0.0]",,0.126891300082,0.0138260228559,-0.0518639497459,"[0.0, 0.0, 0.0, 0.0, 0.0, 0.0, 0.0, 0.0, 0.0]"
1501822123149326086,,985,,1501822123,149326086,"""imu""",,0.00498408560828,0.0148391395195,0.58752878822,0.809051841257,"[0.0, 0.0, 0.0, 0.0, 0.0, 0.0, 0.0, 0.0, 0.0]",,-0.000679975311384,0.00257943900361,-0.000812419786958,"[0.0, 0.0, 0.0, 0.0, 0.0, 0.0, 0.0, 0.0, 0.0]",,0.161579325795,0.0100311180577,-0.0471487529576,"[0.0, 0.0, 0.0, 0.0, 0.0, 0.0, 0.0, 0.0, 0.0]"
1501822123151314973,,1005,,1501822123,151314973,"""imu""",,0.00498042042375,0.0148420677561,0.587527572632,0.809052692866,"[0.0, 0.0, 0.0, 0.0, 0.0, 0.0, 0.0, 0.0, 0.0]",,-0.00049244166468,0.0018015163854,-0.000621128618913,"[0.0, 0.0, 0.0, 0.0, 0.0, 0.0, 0.0, 0.0, 0.0]",,0.181989982724,0.00183459848631,-0.0138538172469,"[0.0, 0.0, 0.0, 0.0, 0.0, 0.0, 0.0, 0.0, 0.0]"
1501822123159317970,,1072,,1501822123,159317970,"""imu""",,0.00497800164274,0.0148407987575,0.58752794319,0.809052461935,"[0.0, 0.0, 0.0, 0.0, 0.0, 0.0, 0.0, 0.0, 0.0]",,-0.00108273486381,0.000159873848213,0.000162349772043,"[0.0, 0.0, 0.0, 0.0, 0.0, 0.0, 0.0, 0.0, 0.0]",,0.166679129004,0.00714765908197,-0.0215797368437,"[0.0, 0.0, 0.0, 0.0, 0.0, 0.0, 0.0, 0.0, 0.0]"
1501822123181322097,,1109,,1501822123,181322097,"""imu""",,0.00498862530945,0.0148170084804,0.587528268821,0.809052596074,"[0.0, 0.0, 0.0, 0.0, 0.0, 0.0, 0.0, 0.0, 0.0]",,-0.000725045151644,-0.0018806151306,-0.000327649827232,"[0.0, 0.0, 0.0, 0.0, 0.0, 0.0, 0.0, 0.0, 0.0]",,0.0618100613356,0.0256581101567,-0.0198394320905,"[0.0, 0.0, 0.0, 0.0, 0.0, 0.0, 0.0, 0.0, 0.0]"
1501822123189284086,,1174,,1501822123,189284086,"""imu""",,0.00498882153854,0.0148152690652,0.587525835219,0.809054393976,"[0.0, 0.0, 0.0, 0.0, 0.0, 0.0, 0.0, 0.0, 0.0]",,-0.000334442545986,-0.00062453799826,-0.00120546530326,"[0.0, 0.0, 0.0, 0.0, 0.0, 0.0, 0.0, 0.0, 0.0]",,0.117495663464,0.0204186178744,0.0377050973475,"[0.0, 0.0, 0.0, 0.0, 0.0, 0.0, 0.0, 0.0, 0.0]"
1501822123191324949,,1187,,1501822123,191324949,"""imu""",,0.00498534666345,0.0148144998999,0.587523086017,0.809056425911,"[0.0, 0.0, 0.0, 0.0, 0.0, 0.0, 0.0, 0.0, 0.0]",,-0.00129306756863,0.000550183528908,-0.00138629147057,"[0.0, 0.0, 0.0, 0.0, 0.0, 0.0, 0.0, 0.0, 0.0]",,0.187106221914,0.0451839566231,0.0425690151751,"[0.0, 0.0, 0.0, 0.0, 0.0, 0.0, 0.0, 0.0, 0.0]"
1501822123201319932,,1250,,1501822123,201319932,"""imu""",,0.00497108984951,0.014811613805,0.587519346155,0.809059282288,"[0.0, 0.0, 0.0, 0.0, 0.0, 0.0, 0.0, 0.0, 0.0]",,-0.00234715231968,0.000950256383516,-0.000790178685797,"[0.0, 0.0, 0.0, 0.0, 0.0, 0.0, 0.0, 0.0, 0.0]",,0.21918515861,0.0283756684512,1.66786576301e-05,"[0.0, 0.0, 0.0, 0.0, 0.0, 0.0, 0.0, 0.0, 0.0]"
1501822123209309101,,1314,,1501822123,209309101,"""imu""",,0.00496667659295,0.0148101493674,0.587518196594,0.809060170983,"[0.0, 0.0, 0.0, 0.0, 0.0, 0.0, 0.0, 0.0, 0.0]",,-0.00176734118866,0.000555670316947,-0.00060411949797,"[0.0, 0.0, 0.0, 0.0, 0.0, 0.0, 0.0, 0.0, 0.0]",,0.19401204586,0.0102680176497,-0.0384048745036,"[0.0, 0.0, 0.0, 0.0, 0.0, 0.0, 0.0, 0.0, 0.0]"
1501822123211316108,,1337,,1501822123,211316108,"""imu""",,0.00496442297903,0.0148060564795,0.5875170245,0.809061110868,"[0.0, 0.0, 0.0, 0.0, 0.0, 0.0, 0.0, 0.0, 0.0]",,-0.00168610190174,-0.000802836503204,-0.000605427281715,"[0.0, 0.0, 0.0, 0.0, 0.0, 0.0, 0.0, 0.0, 0.0]",,0.15820813179,0.00144432811067,-0.0632517710328,"[0.0, 0.0, 0.0, 0.0, 0.0, 0.0, 0.0, 0.0, 0.0]"
1501822123219290971,,1399,,1501822123,219290971,"""imu""",,0.00496562644676,0.0148041434479,0.587514372622,0.8090630642,"[0.0, 0.0, 0.0, 0.0, 0.0, 0.0, 0.0, 0.0, 0.0]",,-4.82771052844e-05,-0.00091875884701,-0.00130634072189,"[0.0, 0.0, 0.0, 0.0, 0.0, 0.0, 0.0, 0.0, 0.0]",,0.13551479578,0.0166586302221,-0.0647720396519,"[0.0, 0.0, 0.0, 0.0, 0.0, 0.0, 0.0, 0.0, 0.0]"
1501822123229295015,,1457,,1501822123,229295015,"""imu""",,0.00497594365325,0.0147936313695,0.587514840344,0.809062853449,"[0.0, 0.0, 0.0, 0.0, 0.0, 0.0, 0.0, 0.0, 0.0]",,0.000334449535483,-0.00305650582189,0.000142732463221,"[0.0, 0.0, 0.0, 0.0, 0.0, 0.0, 0.0, 0.0, 0.0]",,0.109356813133,0.0502728670835,0.00517692649737,"[0.0, 0.0, 0.0, 0.0, 0.0, 0.0, 0.0, 0.0, 0.0]"
1501822123231364011,,1480,,1501822123,231364011,"""imu""",,0.00498089832547,0.0147877963599,0.587514496733,0.809063179152,"[0.0, 0.0, 0.0, 0.0, 0.0, 0.0, 0.0, 0.0, 0.0]",,0.000233578976994,-0.00305533860832,-0.000146820343974,"[0.0, 0.0, 0.0, 0.0, 0.0, 0.0, 0.0, 0.0, 0.0]",,0.0970354378223,0.0339483059943,0.0450214520097,"[0.0, 0.0, 0.0, 0.0, 0.0, 0.0, 0.0, 0.0, 0.0]"
1501822123241336107,,1550,,1501822123,241336107,"""imu""",,0.00498137717559,0.0147831189957,0.587513368586,0.809064080903,"[0.0, 0.0, 0.0, 0.0, 0.0, 0.0, 0.0, 0.0, 0.0]",,-0.000804040452274,-0.000328198193947,-0.000326338109864,"[0.0, 0.0, 0.0, 0.0, 0.0, 0.0, 0.0, 0.0, 0.0]",,0.0800425708294,0.0206707138568,0.035184148699,"[0.0, 0.0, 0.0, 0.0, 0.0, 0.0, 0.0, 0.0, 0.0]"
1501822123249300003,,1605,,1501822123,249300003,"""imu""",,0.00497578405795,0.0147808144419,0.587512452419,0.809064822712,"[0.0, 0.0, 0.0, 0.0, 0.0, 0.0, 0.0, 0.0, 0.0]",,-0.0023477143403,0.000562386281265,-0.000499315331567,"[0.0, 0.0, 0.0, 0.0, 0.0, 0.0, 0.0, 0.0, 0.0]",,0.0827712640166,0.00678931595758,0.0250735916197,"[0.0, 0.0, 0.0, 0.0, 0.0, 0.0, 0.0, 0.0, 0.0]"
1501822123251327991,,1623,,1501822123,251327991,"""imu""",,0.00496975920589,0.0147829387062,0.587512478964,0.809064801656,"[0.0, 0.0, 0.0, 0.0, 0.0, 0.0, 0.0, 0.0, 0.0]",,-0.00145069796695,0.00210350975042,-2.63191173762e-05,"[0.0, 0.0, 0.0, 0.0, 0.0, 0.0, 0.0, 0.0, 0.0]",,0.105017967522,0.0165308900177,-0.0234489701688,"[0.0, 0.0, 0.0, 0.0, 0.0, 0.0, 0.0, 0.0, 0.0]"
1501822123259306907,,1688,,1501822123,259306907,"""imu""",,0.00496203900763,0.0147835977589,0.587510795997,0.809066059104,"[0.0, 0.0, 0.0, 0.0, 0.0, 0.0, 0.0, 0.0, 0.0]",,-0.00233611788621,0.00201678666631,-0.00088712945282,"[0.0, 0.0, 0.0, 0.0, 0.0, 0.0, 0.0, 0.0, 0.0]",,0.15651896596,0.0261944010854,-0.0305527113378,"[0.0, 0.0, 0.0, 0.0, 0.0, 0.0, 0.0, 0.0, 0.0]"
1501822123261332988,,1708,,1501822123,261332988,"""imu""",,0.00495823257432,0.0147855157837,0.587510575765,0.809066207314,"[0.0, 0.0, 0.0, 0.0, 0.0, 0.0, 0.0, 0.0, 0.0]",,-0.00078010880298,0.00151393464901,-0.000132429114934,"[0.0, 0.0, 0.0, 0.0, 0.0, 0.0, 0.0, 0.0, 0.0]",,0.209093496203,0.0240217130631,-0.0175271481276,"[0.0, 0.0, 0.0, 0.0, 0.0, 0.0, 0.0, 0.0, 0.0]"
1501822123269372940,,1775,,1501822123,269372940,"""imu""",,0.00495894681958,0.0147876936623,0.58750887163,0.809067400603,"[0.0, 0.0, 0.0, 0.0, 0.0, 0.0, 0.0, 0.0, 0.0]",,0.000750670469962,0.000526530321689,-0.000832035177732,"[0.0, 0.0, 0.0, 0.0, 0.0, 0.0, 0.0, 0.0, 0.0]",,0.239599570632,0.0426266342402,0.0125834923238,"[0.0, 0.0, 0.0, 0.0, 0.0, 0.0, 0.0, 0.0, 0.0]"
1501822123271338939,,1795,,1501822123,271338939,"""imu""",,0.0049611062021,0.0147878987793,0.587508528286,0.809067632937,"[0.0, 0.0, 0.0, 0.0, 0.0, 0.0, 0.0, 0.0, 0.0]",,0.000748606585136,-0.000443135636283,-0.000153359555279,"[0.0, 0.0, 0.0, 0.0, 0.0, 0.0, 0.0, 0.0, 0.0]",,0.228735074401,0.0363801605999,0.0481324829161,"[0.0, 0.0, 0.0, 0.0, 0.0, 0.0, 0.0, 0.0, 0.0]"
1501822123279303073,,1861,,1501822123,279303073,"""imu""",,0.00496606832731,0.014784148731,0.587508161708,0.80906793722,"[0.0, 0.0, 0.0, 0.0, 0.0, 0.0, 0.0, 0.0, 0.0]",,0.000726167177302,-0.0023822561118,-0.000153359685316,"[0.0, 0.0, 0.0, 0.0, 0.0, 0.0, 0.0, 0.0, 0.0]",,0.184288233519,0.0186195131391,0.0633796826005,"[0.0, 0.0, 0.0, 0.0, 0.0, 0.0, 0.0, 0.0, 0.0]"
1501822123281330108,,1881,,1501822123,281330108,"""imu""",,0.00497445250361,0.0147798273116,0.587509093442,0.809067288085,"[0.0, 0.0, 0.0, 0.0, 0.0, 0.0, 0.0, 0.0, 0.0]",,0.00169357656788,-0.00336314099346,0.000512235206367,"[0.0, 0.0, 0.0, 0.0, 0.0, 0.0, 0.0, 0.0, 0.0]",,0.1144233495,0.00883029028773,0.0392940789461,"[0.0, 0.0, 0.0, 0.0, 0.0, 0.0, 0.0, 0.0, 0.0]"
1501822123289352893,,1947,,1501822123,289352893,"""imu""",,0.00498118758781,0.0147782141555,0.587509249802,0.809067162573,"[0.0, 0.0, 0.0, 0.0, 0.0, 0.0, 0.0, 0.0, 0.0]",,0.00179987856734,-0.00210377320571,0.000123112009125,"[0.0, 0.0, 0.0, 0.0, 0.0, 0.0, 0.0, 0.0, 0.0]",,0.059951711446,0.0260314829648,0.0290478784591,"[0.0, 0.0, 0.0, 0.0, 0.0, 0.0, 0.0, 0.0, 0.0]"
1501822123291418075,,1969,,1501822123,291418075,"""imu""",,0.00498730453905,0.014777930421,0.587510191116,0.80906644653,"[0.0, 0.0, 0.0, 0.0, 0.0, 0.0, 0.0, 0.0, 0.0]",,0.00190879015258,-0.00152321891231,0.000509618371016,"[0.0, 0.0, 0.0, 0.0, 0.0, 0.0, 0.0, 0.0, 0.0]",,0.0388848036528,0.0190453063697,0.0290265474468,"[0.0, 0.0, 0.0, 0.0, 0.0, 0.0, 0.0, 0.0, 0.0]"
1501822123299310922,,2016,,1501822123,299310922,"""imu""",,0.00499158092225,0.0147810917811,0.587511334664,0.80906553201,"[0.0, 0.0, 0.0, 0.0, 0.0, 0.0, 0.0, 0.0, 0.0]",,0.00212194472885,2.58195166294e-05,0.00060395545609,"[0.0, 0.0, 0.0, 0.0, 0.0, 0.0, 0.0, 0.0, 0.0]",,0.0553499013186,0.0311677288264,0.0400967374444,"[0.0, 0.0, 0.0, 0.0, 0.0, 0.0, 0.0, 0.0, 0.0]"
1501822123301337957,,2038,,1501822123,301337957,"""imu""",,0.00499045330434,0.0147863830569,0.58751160243,0.80906524784,"[0.0, 0.0, 0.0, 0.0, 0.0, 0.0, 0.0, 0.0, 0.0]",,0.000877530239514,0.00197960123929,0.000136191788998,"[0.0, 0.0, 0.0, 0.0, 0.0, 0.0, 0.0, 0.0, 0.0]",,0.120396211743,0.036866299808,0.067599594593,"[0.0, 0.0, 0.0, 0.0, 0.0, 0.0, 0.0, 0.0, 0.0]"
1501822123309317111,,2103,,1501822123,309317111,"""imu""",,0.0049850927988,0.0147922276287,0.587512553523,0.809064483403,"[0.0, 0.0, 0.0, 0.0, 0.0, 0.0, 0.0, 0.0, 0.0]",,-0.000365396559662,0.00315761283671,0.000444058152424,"[0.0, 0.0, 0.0, 0.0, 0.0, 0.0, 0.0, 0.0, 0.0]",,0.192790493369,0.0366198010743,0.0608173459768,"[0.0, 0.0, 0.0, 0.0, 0.0, 0.0, 0.0, 0.0, 0.0]"
1501822123311328887,,2125,,1501822123,311328887,"""imu""",,0.00497817702849,0.0147981618375,0.587513344406,0.809063843157,"[0.0, 0.0, 0.0, 0.0, 0.0, 0.0, 0.0, 0.0, 0.0]",,-0.000846953561174,0.00355106159825,0.00035364497124,"[0.0, 0.0, 0.0, 0.0, 0.0, 0.0, 0.0, 0.0, 0.0]",,0.217346668243,0.0350714251399,0.0626164972782,"[0.0, 0.0, 0.0, 0.0, 0.0, 0.0, 0.0, 0.0, 0.0]"
1501822123319315910,,2181,,1501822123,319315910,"""imu""",,0.00497374744826,0.0148026166327,0.58751271881,0.809064243193,"[0.0, 0.0, 0.0, 0.0, 0.0, 0.0, 0.0, 0.0, 0.0]",,-0.000383716260148,0.00247904173163,-0.000331571683038,"[0.0, 0.0, 0.0, 0.0, 0.0, 0.0, 0.0, 0.0, 0.0]",,0.223281890154,0.016669858247,0.0295711643994,"[0.0, 0.0, 0.0, 0.0, 0.0, 0.0, 0.0, 0.0, 0.0]"
1501822123321332931,,2204,,1501822123,321332931,"""imu""",,0.00497230579404,0.0148050076424,0.587513222002,0.809063842905,"[0.0, 0.0, 0.0, 0.0, 0.0, 0.0, 0.0, 0.0, 0.0]",,9.31596717124e-05,0.00111595682313,0.000243609864916,"[0.0, 0.0, 0.0, 0.0, 0.0, 0.0, 0.0, 0.0, 0.0]",,0.22713778913,-0.000461029936559,-0.00527653098106,"[0.0, 0.0, 0.0, 0.0, 0.0, 0.0, 0.0, 0.0, 0.0]"
1501822123329312086,,2267,,1501822123,329312086,"""imu""",,0.00497403724731,0.0148054736409,0.587514455634,0.809062927914,"[0.0, 0.0, 0.0, 0.0, 0.0, 0.0, 0.0, 0.0, 0.0]",,0.000664367470905,-0.000248219308473,0.000623575853294,"[0.0, 0.0, 0.0, 0.0, 0.0, 0.0, 0.0, 0.0, 0.0]",,0.204937681556,0.00501727033406,-0.0501463226974,"[0.0, 0.0, 0.0, 0.0, 0.0, 0.0, 0.0, 0.0, 0.0]"
1501822123331326961,,2289,,1501822123,331326961,"""imu""",,0.00498077233255,0.0148047368308,0.587515387094,0.809062223566,"[0.0, 0.0, 0.0, 0.0, 0.0, 0.0, 0.0, 0.0, 0.0]",,0.00200236931605,-0.00181520669788,0.000508308311621,"[0.0, 0.0, 0.0, 0.0, 0.0, 0.0, 0.0, 0.0, 0.0]",,0.19369481504,0.0165386125445,-0.0402286946774,"[0.0, 0.0, 0.0, 0.0, 0.0, 0.0, 0.0, 0.0, 0.0]"
1501822123339309930,,2353,,1501822123,339309930,"""imu""",,0.00498836198796,0.0148048991733,0.587516484504,0.809061376931,"[0.0, 0.0, 0.0, 0.0, 0.0, 0.0, 0.0, 0.0, 0.0]",,0.0024895362508,-0.00172387444654,0.000598720940146,"[0.0, 0.0, 0.0, 0.0, 0.0, 0.0, 0.0, 0.0, 0.0]",,0.190945029259,0.0304276645184,-0.0133326957002,"[0.0, 0.0, 0.0, 0.0, 0.0, 0.0, 0.0, 0.0, 0.0]"
1501822123341379880,,2376,,1501822123,341379880,"""imu""",,0.00499703640629,0.0148081885476,0.587518502761,0.8090597976,"[0.0, 0.0, 0.0, 0.0, 0.0, 0.0, 0.0, 0.0, 0.0]",,0.0035714722313,-0.000960641541433,0.00106909962207,"[0.0, 0.0, 0.0, 0.0, 0.0, 0.0, 0.0, 0.0, 0.0]",,0.197163045406,0.0235129222274,0.0427351668477,"[0.0, 0.0, 0.0, 0.0, 0.0, 0.0, 0.0, 0.0, 0.0]"
1501822123349306106,,2440,,1501822123,349306106,"""imu""",,0.00500436577244,0.0148108327847,0.587519971464,0.80905863736,"[0.0, 0.0, 0.0, 0.0, 0.0, 0.0, 0.0, 0.0, 0.0]",,0.00298698717454,-0.000856907580878,0.000786086156215,"[0.0, 0.0, 0.0, 0.0, 0.0, 0.0, 0.0, 0.0, 0.0]",,0.193100959063,0.0261491741985,0.098336391151,"[0.0, 0.0, 0.0, 0.0, 0.0, 0.0, 0.0, 0.0, 0.0]"
1501822123351334095,,2462,,1501822123,351334095,"""imu""",,0.00500912011539,0.0148146150772,0.587521881458,0.809057151692,"[0.0, 0.0, 0.0, 0.0, 0.0, 0.0, 0.0, 0.0, 0.0]",,0.00241914011267,0.000119354739731,0.000987841674809,"[0.0, 0.0, 0.0, 0.0, 0.0, 0.0, 0.0, 0.0, 0.0]",,0.188110768795,0.00923585239798,0.128004088998,"[0.0, 0.0, 0.0, 0.0, 0.0, 0.0, 0.0, 0.0, 0.0]"
1501822123359313964,,2527,,1501822123,359313964,"""imu""",,0.00500897966381,0.0148193989858,0.587523112311,0.809056171126,"[0.0, 0.0, 0.0, 0.0, 0.0, 0.0, 0.0, 0.0, 0.0]",,0.00107347660794,0.00158946296383,0.000618339906942,"[0.0, 0.0, 0.0, 0.0, 0.0, 0.0, 0.0, 0.0, 0.0]",,0.163174450397,0.0114082237706,0.0935445651412,"[0.0, 0.0, 0.0, 0.0, 0.0, 0.0, 0.0, 0.0, 0.0]"
1501822123361336946,,2549,,1501822123,361336946,"""imu""",,0.00500769930895,0.0148248866485,0.587522989131,0.809056167967,"[0.0, 0.0, 0.0, 0.0, 0.0, 0.0, 0.0, 0.0, 0.0]",,0.000876035397311,0.00207659322809,-5.77201886585e-05,"[0.0, 0.0, 0.0, 0.0, 0.0, 0.0, 0.0, 0.0, 0.0]",,0.173315808177,0.0177412182093,0.0329735726118,"[0.0, 0.0, 0.0, 0.0, 0.0, 0.0, 0.0, 0.0, 0.0]"
1501822123369299888,,2613,,1501822123,369299888,"""imu""",,0.00500427688201,0.0148317967042,0.587524471091,0.809054986319,"[0.0, 0.0, 0.0, 0.0, 0.0, 0.0, 0.0, 0.0, 0.0]",,0.000509929875039,0.00305052047137,0.000723141602639,"[0.0, 0.0, 0.0, 0.0, 0.0, 0.0, 0.0, 0.0, 0.0]",,0.200559183955,0.0156195918098,-0.0388190075755,"[0.0, 0.0, 0.0, 0.0, 0.0, 0.0, 0.0, 0.0, 0.0]"
1501822123371330976,,2635,,1501822123,371330976,"""imu""",,0.00500221321979,0.0148396850603,0.587525125011,0.809054379563,"[0.0, 0.0, 0.0, 0.0, 0.0, 0.0, 0.0, 0.0, 0.0]",,0.0011833277767,0.00304272812444,0.000326169484173,"[0.0, 0.0, 0.0, 0.0, 0.0, 0.0, 0.0, 0.0, 0.0]",,0.226212695241,0.0101906731725,-0.0672512575984,"[0.0, 0.0, 0.0, 0.0, 0.0, 0.0, 0.0, 0.0, 0.0]"
1501822123379349946,,2701,,1501822123,379349946,"""imu""",,0.00500078018502,0.0148462453834,0.587525386023,0.809054078523,"[0.0, 0.0, 0.0, 0.0, 0.0, 0.0, 0.0, 0.0, 0.0]",,0.00107703188899,0.00246214444264,0.000133569516468,"[0.0, 0.0, 0.0, 0.0, 0.0, 0.0, 0.0, 0.0, 0.0]",,0.247398450971,-0.00343197863549,-0.0373278968036,"[0.0, 0.0, 0.0, 0.0, 0.0, 0.0, 0.0, 0.0, 0.0]"
1501822123381336927,,2721,,1501822123,381336927,"""imu""",,0.00500208110086,0.0148514719483,0.587525792639,0.809053679276,"[0.0, 0.0, 0.0, 0.0, 0.0, 0.0, 0.0, 0.0, 0.0]",,0.00164768099164,0.00138888207093,0.000222674044284,"[0.0, 0.0, 0.0, 0.0, 0.0, 0.0, 0.0, 0.0, 0.0]",,0.267472088337,0.0034353598021,-0.0208146311343,"[0.0, 0.0, 0.0, 0.0, 0.0, 0.0, 0.0, 0.0, 0.0]"
1501822123389348983,,2788,,1501822123,389348983,"""imu""",,0.00500664405874,0.0148542385497,0.587527129474,0.809052629465,"[0.0, 0.0, 0.0, 0.0, 0.0, 0.0, 0.0, 0.0, 0.0]",,0.00212100547042,-0.00016809902384,0.000700901411738,"[0.0, 0.0, 0.0, 0.0, 0.0, 0.0, 0.0, 0.0, 0.0]",,0.284654378891,0.00364597514272,0.00764046190307,"[0.0, 0.0, 0.0, 0.0, 0.0, 0.0, 0.0, 0.0, 0.0]"
1501822123391499042,,2810,,1501822123,391499042,"""imu""",,0.00501301632079,0.0148544329879,0.587528058946,0.809051911461,"[0.0, 0.0, 0.0, 0.0, 0.0, 0.0, 0.0, 0.0, 0.0]",,0.00210380415455,-0.0014284964621,0.000506993440852,"[0.0, 0.0, 0.0, 0.0, 0.0, 0.0, 0.0, 0.0, 0.0]",,0.274993091822,0.0059979679063,0.0309653691947,"[0.0, 0.0, 0.0, 0.0, 0.0, 0.0, 0.0, 0.0, 0.0]"
1501822123399321079,,2874,,1501822123,399321079,"""imu""",,0.00501920967581,0.0148536130512,0.587528807602,0.809051344447,"[0.0, 0.0, 0.0, 0.0, 0.0, 0.0, 0.0, 0.0, 0.0]",,0.00180828911094,-0.00171598314133,0.000413963716901,"[0.0, 0.0, 0.0, 0.0, 0.0, 0.0, 0.0, 0.0, 0.0]",,0.275260210037,-0.000934716546908,0.027909103781,"[0.0, 0.0, 0.0, 0.0, 0.0, 0.0, 0.0, 0.0, 0.0]"
1501822123401329994,,2894,,1501822123,401329994,"""imu""",,0.0050257608411,0.0148548218648,0.587529917831,0.809050475341,"[0.0, 0.0, 0.0, 0.0, 0.0, 0.0, 0.0, 0.0, 0.0]",,0.00239932088865,-0.00114100770228,0.000600022157014,"[0.0, 0.0, 0.0, 0.0, 0.0, 0.0, 0.0, 0.0, 0.0]",,0.235042303801,0.0182664692402,-0.0100024174899,"[0.0, 0.0, 0.0, 0.0, 0.0, 0.0, 0.0, 0.0, 0.0]"
1501822123419537067,,2976,,1501822123,419537067,"""imu""",,0.00503343713082,0.0148693295446,0.587530275708,0.809049901227,"[0.0, 0.0, 0.0, 0.0, 0.0, 0.0, 0.0, 0.0, 0.0]",,0.00164581599865,0.00167981577526,-0.000165144498233,"[0.0, 0.0, 0.0, 0.0, 0.0, 0.0, 0.0, 0.0, 0.0]",,0.164187803864,0.00503013748676,-0.0136381117627,"[0.0, 0.0, 0.0, 0.0, 0.0, 0.0, 0.0, 0.0, 0.0]"
1501822123421331882,,2994,,1501822123,421331882,"""imu""",,0.005034670229,0.014877509308,0.58752908184,0.809050610162,"[0.0, 0.0, 0.0, 0.0, 0.0, 0.0, 0.0, 0.0, 0.0]",,0.00232706781984,0.00235071611816,-0.000562116779246,"[0.0, 0.0, 0.0, 0.0, 0.0, 0.0, 0.0, 0.0, 0.0]",,0.192211225629,0.00970104616135,0.00947635434568,"[0.0, 0.0, 0.0, 0.0, 0.0, 0.0, 0.0, 0.0, 0.0]"
1501822123429303884,,3059,,1501822123,429303884,"""imu""",,0.00503446088919,0.0148840382819,0.587529706449,0.80905003779,"[0.0, 0.0, 0.0, 0.0, 0.0, 0.0, 0.0, 0.0, 0.0]",,0.00146407033856,0.00216676528787,0.00032223878584,"[0.0, 0.0, 0.0, 0.0, 0.0, 0.0, 0.0, 0.0, 0.0]",,0.261251956224,0.00409029098228,0.00396257685497,"[0.0, 0.0, 0.0, 0.0, 0.0, 0.0, 0.0, 0.0, 0.0]"
1501822123431341886,,3081,,1501822123,431341886,"""imu""",,0.00503605062201,0.0148921624482,0.58752909321,0.809050323727,"[0.0, 0.0, 0.0, 0.0, 0.0, 0.0, 0.0, 0.0, 0.0]",,0.00242681594631,0.00225259397637,-0.000272565142385,"[0.0, 0.0, 0.0, 0.0, 0.0, 0.0, 0.0, 0.0, 0.0]",,0.308677315712,-0.0210622437298,-0.00279356748797,"[0.0, 0.0, 0.0, 0.0, 0.0, 0.0, 0.0, 0.0, 0.0]"
1501822123439317941,,3142,,1501822123,439317941,"""imu""",,0.00503787448388,0.0148974702069,0.587529093926,0.809050214136,"[0.0, 0.0, 0.0, 0.0, 0.0, 0.0, 0.0, 0.0, 0.0]",,0.00183783628507,0.00128972028203,2.6143743976e-05,"[0.0, 0.0, 0.0, 0.0, 0.0, 0.0, 0.0, 0.0, 0.0]",,0.327582716942,-0.0105099203065,-0.0311275459826,"[0.0, 0.0, 0.0, 0.0, 0.0, 0.0, 0.0, 0.0, 0.0]"
1501822123441340923,,3165,,1501822123,441340923,"""imu""",,0.0050385047771,0.0148998520824,0.587529155353,0.80905012174,"[0.0, 0.0, 0.0, 0.0, 0.0, 0.0, 0.0, 0.0, 0.0]",,0.000763562874411,0.000623369224243,4.05325835829e-05,"[0.0, 0.0, 0.0, 0.0, 0.0, 0.0, 0.0, 0.0, 0.0]",,0.329501450062,0.00293334200978,-0.0338984578848,"[0.0, 0.0, 0.0, 0.0, 0.0, 0.0, 0.0, 0.0, 0.0]"
1501822123449366092,,3228,,1501822123,449366092,"""imu""",,0.00504378946273,0.0149031718742,0.587528310237,0.809050641386,"[0.0, 0.0, 0.0, 0.0, 0.0, 0.0, 0.0, 0.0, 0.0]",,0.00249440484216,-0.00017241209645,-0.000370828537037,"[0.0, 0.0, 0.0, 0.0, 0.0, 0.0, 0.0, 0.0, 0.0]",,0.284997910261,-0.0135206328705,-0.0384941883385,"[0.0, 0.0, 0.0, 0.0, 0.0, 0.0, 0.0, 0.0, 0.0]"
1501822123451340913,,3252,,1501822123,451340913,"""imu""",,0.00504904165236,0.014905280213,0.587527479191,0.809051173286,"[0.0, 0.0, 0.0, 0.0, 0.0, 0.0, 0.0, 0.0, 0.0]",,0.00219907536159,-0.000556869714716,-0.000366904990748,"[0.0, 0.0, 0.0, 0.0, 0.0, 0.0, 0.0, 0.0, 0.0]",,0.230605885386,-0.00271207070909,-0.0316560938954,"[0.0, 0.0, 0.0, 0.0, 0.0, 0.0, 0.0, 0.0, 0.0]"
1501822123459312915,,3315,,1501822123,459312915,"""imu""",,0.00505571417449,0.014906289229,0.587527999672,0.809050735057,"[0.0, 0.0, 0.0, 0.0, 0.0, 0.0, 0.0, 0.0, 0.0]",,0.00239427206577,-0.00123791113578,0.000309154283993,"[0.0, 0.0, 0.0, 0.0, 0.0, 0.0, 0.0, 0.0, 0.0]",,0.211208805442,-0.00450608320534,-0.00179176102392,"[0.0, 0.0, 0.0, 0.0, 0.0, 0.0, 0.0, 0.0, 0.0]"
1501822123461350917,,3338,,1501822123,461350917,"""imu""",,0.0050611942165,0.0149055804951,0.587527586498,0.809051013897,"[0.0, 0.0, 0.0, 0.0, 0.0, 0.0, 0.0, 0.0, 0.0]",,0.00160878882686,-0.0015197278046,-0.000165149846011,"[0.0, 0.0, 0.0, 0.0, 0.0, 0.0, 0.0, 0.0, 0.0]",,0.194703251123,-0.00423530675471,-0.0317829996347,"[0.0, 0.0, 0.0, 0.0, 0.0, 0.0, 0.0, 0.0, 0.0]"
1501822123469321966,,3402,,1501822123,469321966,"""imu""",,0.00506560329715,0.0149055828963,0.587527975991,0.809050703411,"[0.0, 0.0, 0.0, 0.0, 0.0, 0.0, 0.0, 0.0, 0.0]",,0.0014257366834,-0.00103276392289,0.000225281061829,"[0.0, 0.0, 0.0, 0.0, 0.0, 0.0, 0.0, 0.0, 0.0]",,0.184442088008,0.0173176787794,-0.0453747473657,"[0.0, 0.0, 0.0, 0.0, 0.0, 0.0, 0.0, 0.0, 0.0]"
1501822123471330881,,3424,,1501822123,471330881,"""imu""",,0.00506760360589,0.0149059839206,0.587527045319,0.809051359343,"[0.0, 0.0, 0.0, 0.0, 0.0, 0.0, 0.0, 0.0, 0.0]",,0.000745804024207,-0.00034611198343,-0.000444238383931,"[0.0, 0.0, 0.0, 0.0, 0.0, 0.0, 0.0, 0.0, 0.0]",,0.224872589111,0.00528895808384,-0.0257781948894,"[0.0, 0.0, 0.0, 0.0, 0.0, 0.0, 0.0, 0.0, 0.0]"
1501822123479294061,,3488,,1501822123,479294061,"""imu""",,0.0050691020595,0.014909598208,0.587525895191,0.809052118572,"[0.0, 0.0, 0.0, 0.0, 0.0, 0.0, 0.0, 0.0, 0.0]",,0.00133964284912,0.000810644649651,-0.00054904089236,"[0.0, 0.0, 0.0, 0.0, 0.0, 0.0, 0.0, 0.0, 0.0]",,0.235899984837,0.000342806015396,-0.0155545473099,"[0.0, 0.0, 0.0, 0.0, 0.0, 0.0, 0.0, 0.0, 0.0]"
1501822123481334924,,3510,,1501822123,481334924,"""imu""",,0.00506822314206,0.0149136144378,0.587524405168,0.809053132093,"[0.0, 0.0, 0.0, 0.0, 0.0, 0.0, 0.0, 0.0, 0.0]",,0.000666249628797,0.0014972209725,-0.000733792036368,"[0.0, 0.0, 0.0, 0.0, 0.0, 0.0, 0.0, 0.0, 0.0]",,0.251040279865,-0.00621067499742,0.00926358625293,"[0.0, 0.0, 0.0, 0.0, 0.0, 0.0, 0.0, 0.0, 0.0]"
1501822123489310979,,3574,,1501822123,489310979,"""imu""",,0.00506807114552,0.0149178526835,0.587522699068,0.809054293855,"[0.0, 0.0, 0.0, 0.0, 0.0, 0.0, 0.0, 0.0, 0.0]",,0.000954660677195,0.0013969145965,-0.000834670380832,"[0.0, 0.0, 0.0, 0.0, 0.0, 0.0, 0.0, 0.0, 0.0]",,0.244413599372,-0.00761473039165,-0.000417227769503,"[0.0, 0.0, 0.0, 0.0, 0.0, 0.0, 0.0, 0.0, 0.0]"
1501822123491341114,,3596,,1501822123,491341114,"""imu""",,0.00506632398897,0.0149197603068,0.587521645406,0.809055034774,"[0.0, 0.0, 0.0, 0.0, 0.0, 0.0, 0.0, 0.0, 0.0]",,-0.000112323150837,0.00102138599626,-0.000529420332609,"[0.0, 0.0, 0.0, 0.0, 0.0, 0.0, 0.0, 0.0, 0.0]",,0.246772959828,-0.016499184072,-0.04043270275,"[0.0, 0.0, 0.0, 0.0, 0.0, 0.0, 0.0, 0.0, 0.0]"
1501822123499356985,,3662,,1501822123,499356985,"""imu""",,0.00506716446004,0.0149214074456,0.587521317442,0.809055237295,"[0.0, 0.0, 0.0, 0.0, 0.0, 0.0, 0.0, 0.0, 0.0]",,0.00066063260854,0.000333658129311,-0.000152070350594,"[0.0, 0.0, 0.0, 0.0, 0.0, 0.0, 0.0, 0.0, 0.0]",,0.246543526649,-0.0213473886251,-0.0520292632282,"[0.0, 0.0, 0.0, 0.0, 0.0, 0.0, 0.0, 0.0, 0.0]"
1501822123501364946,,3682,,1501822123,501364946,"""imu""",,0.00507007570596,0.0149209611468,0.587520766631,0.809055627277,"[0.0, 0.0, 0.0, 0.0, 0.0, 0.0, 0.0, 0.0, 0.0]",,0.00083975528902,-0.00083204258985,-0.000251640586221,"[0.0, 0.0, 0.0, 0.0, 0.0, 0.0, 0.0, 0.0, 0.0]",,0.272684842348,-0.0216084960848,-0.062759026885,"[0.0, 0.0, 0.0, 0.0, 0.0, 0.0, 0.0, 0.0, 0.0]"
1501822123509309053,,3749,,1501822123,509309053,"""imu""",,0.00507442822625,0.0149209575555,0.587519391563,0.809056598602,"[0.0, 0.0, 0.0, 0.0, 0.0, 0.0, 0.0, 0.0, 0.0]",,0.00141396285863,-0.00103262497818,-0.000647304254503,"[0.0, 0.0, 0.0, 0.0, 0.0, 0.0, 0.0, 0.0, 0.0]",,0.2911490798,-0.0199215840548,-0.0340145304799,"[0.0, 0.0, 0.0, 0.0, 0.0, 0.0, 0.0, 0.0, 0.0]"
1501822123511403083,,3770,,1501822123,511403083,"""imu""",,0.00507759480543,0.0149218654959,0.5875196046,0.809056407287,"[0.0, 0.0, 0.0, 0.0, 0.0, 0.0, 0.0, 0.0, 0.0]",,0.001237264591,-0.00044876549771,0.000130941310993,"[0.0, 0.0, 0.0, 0.0, 0.0, 0.0, 0.0, 0.0, 0.0]",,0.291756302118,-0.0131535250694,-0.019066920504,"[0.0, 0.0, 0.0, 0.0, 0.0, 0.0, 0.0, 0.0, 0.0]"
1501822123519391059,,3836,,1501822123,519391059,"""imu""",,0.00507772357642,0.0149202043899,0.587466863603,0.809094733881,"[0.0, 0.0, 0.0, 0.0, 0.0, 0.0, 0.0, 0.0, 0.0]",,0.000543110840143,-0.000537699506168,-0.000926571089627,"[0.0, 0.0, 0.0, 0.0, 0.0, 0.0, 0.0, 0.0, 0.0]",,0.277039706707,-0.0212529078126,0.00463268440217,"[0.0, 0.0, 0.0, 0.0, 0.0, 0.0, 0.0, 0.0, 0.0]"
1501822123521377086,,3856,,1501822123,521377086,"""imu""",,0.00507805356819,0.0149208953932,0.587466558002,0.809094940957,"[0.0, 0.0, 0.0, 0.0, 0.0, 0.0, 0.0, 0.0, 0.0]",,0.000270577426826,0.000144233921065,-0.000147016732599,"[0.0, 0.0, 0.0, 0.0, 0.0, 0.0, 0.0, 0.0, 0.0]",,0.275840580463,-0.02122618258,0.029369994998,"[0.0, 0.0, 0.0, 0.0, 0.0, 0.0, 0.0, 0.0, 0.0]"
1501822123529330968,,3922,,1501822123,529330968,"""imu""",,0.0050769932388,0.014919728635,0.587465325006,0.809095864378,"[0.0, 0.0, 0.0, 0.0, 0.0, 0.0, 0.0, 0.0, 0.0]",,-0.00061185053238,-0.000136460169447,-0.000620012379909,"[0.0, 0.0, 0.0, 0.0, 0.0, 0.0, 0.0, 0.0, 0.0]",,0.245797678828,-0.0239608809352,0.0215352997184,"[0.0, 0.0, 0.0, 0.0, 0.0, 0.0, 0.0, 0.0, 0.0]"
1501822123539449930,,3999,,1501822123,539449930,"""imu""",,0.00507150690291,0.0149179727809,0.587463325775,0.809097382752,"[0.0, 0.0, 0.0, 0.0, 0.0, 0.0, 0.0, 0.0, 0.0]",,-0.00108891897613,0.000644812417375,-0.000710424878397,"[0.0, 0.0, 0.0, 0.0, 0.0, 0.0, 0.0, 0.0, 0.0]",,0.268252253532,-0.018225196749,-0.035838522017,"[0.0, 0.0, 0.0, 0.0, 0.0, 0.0, 0.0, 0.0, 0.0]"
1501822123541352033,,4020,,1501822123,541352033,"""imu""",,0.00506923059765,0.0149197986774,0.58746248151,0.809097976346,"[0.0, 0.0, 0.0, 0.0, 0.0, 0.0, 0.0, 0.0, 0.0]",,-0.000303807676016,0.0011205721021,-0.000430028507969,"[0.0, 0.0, 0.0, 0.0, 0.0, 0.0, 0.0, 0.0, 0.0]",,0.263052046299,-0.0316095463932,-0.043707061559,"[0.0, 0.0, 0.0, 0.0, 0.0, 0.0, 0.0, 0.0, 0.0]"
1501822123549443006,,4085,,1501822123,549443006,"""imu""",,0.00506396250035,0.0149183118383,0.587461941525,0.809098428817,"[0.0, 0.0, 0.0, 0.0, 0.0, 0.0, 0.0, 0.0, 0.0]",,-0.00205203792057,0.000752926809789,-0.000309528791021,"[0.0, 0.0, 0.0, 0.0, 0.0, 0.0, 0.0, 0.0, 0.0]",,0.285842508078,-0.0386887714267,-0.0424895249307,"[0.0, 0.0, 0.0, 0.0, 0.0, 0.0, 0.0, 0.0, 0.0]"
1501822123551374912,,4108,,1501822123,551374912,"""imu""",,0.00506085039621,0.0149192406415,0.587461519562,0.809098737538,"[0.0, 0.0, 0.0, 0.0, 0.0, 0.0, 0.0, 0.0, 0.0]",,-0.000787050251739,0.00102919492293,-0.000229579911623,"[0.0, 0.0, 0.0, 0.0, 0.0, 0.0, 0.0, 0.0, 0.0]",,0.277685046196,-0.0282570645213,-0.0188766065985,"[0.0, 0.0, 0.0, 0.0, 0.0, 0.0, 0.0, 0.0, 0.0]"
1501822123559442996,,4161,,1501822123,559442996,"""imu""",,0.00505823988925,0.0149169561427,0.587461317097,0.809098942987,"[0.0, 0.0, 0.0, 0.0, 0.0, 0.0, 0.0, 0.0, 0.0]",,-0.0013808895968,-0.000127561360681,-0.000124777549486,"[0.0, 0.0, 0.0, 0.0, 0.0, 0.0, 0.0, 0.0, 0.0]",,0.278409123421,-0.0286381077021,-0.0106441043317,"[0.0, 0.0, 0.0, 0.0, 0.0, 0.0, 0.0, 0.0, 0.0]"
1501822123561387062,,4183,,1501822123,561387062,"""imu""",,0.00505750363808,0.0149145222619,0.587460678924,0.809099455815,"[0.0, 0.0, 0.0, 0.0, 0.0, 0.0, 0.0, 0.0, 0.0]",,-0.000807432081549,-0.000619042757806,-0.000326533198117,"[0.0, 0.0, 0.0, 0.0, 0.0, 0.0, 0.0, 0.0, 0.0]",,0.283021122217,-0.0400231406093,-0.000634058727883,"[0.0, 0.0, 0.0, 0.0, 0.0, 0.0, 0.0, 0.0, 0.0]"
1501822123569431066,,4247,,1501822123,569431066,"""imu""",,0.00505680359609,0.0149091318113,0.587460661019,0.809099572538,"[0.0, 0.0, 0.0, 0.0, 0.0, 0.0, 0.0, 0.0, 0.0]",,-0.00149335821859,-0.00158079546679,-2.65150061707e-05,"[0.0, 0.0, 0.0, 0.0, 0.0, 0.0, 0.0, 0.0, 0.0]",,0.261749476194,-0.0215373821557,-0.0152963073924,"[0.0, 0.0, 0.0, 0.0, 0.0, 0.0, 0.0, 0.0, 0.0]"
1501822123571379899,,4269,,1501822123,571379899,"""imu""",,0.00505598959642,0.0149042736979,0.58745965887,0.809100394757,"[0.0, 0.0, 0.0, 0.0, 0.0, 0.0, 0.0, 0.0, 0.0]",,-0.0014007066102,-0.00138792980878,-0.000512591020553,"[0.0, 0.0, 0.0, 0.0, 0.0, 0.0, 0.0, 0.0, 0.0]",,0.258321344852,-0.0218709763139,-0.0253174956888,"[0.0, 0.0, 0.0, 0.0, 0.0, 0.0, 0.0, 0.0, 0.0]"
1501822123589358091,,4326,,1501822123,589358091,"""imu""",,0.00504974787015,0.0149041311092,0.587462079125,0.809098679095,"[0.0, 0.0, 0.0, 0.0, 0.0, 0.0, 0.0, 0.0, 0.0]",,-0.000589230958057,0.00102690561868,5.86669282845e-05,"[0.0, 0.0, 0.0, 0.0, 0.0, 0.0, 0.0, 0.0, 0.0]",,0.306354820728,-0.0289374068379,-0.00582188600674,"[0.0, 0.0, 0.0, 0.0, 0.0, 0.0, 0.0, 0.0, 0.0]"
1501822123591397047,,4348,,1501822123,591397047,"""imu""",,0.00504472278082,0.0149048733938,0.587462686058,0.809098256092,"[0.0, 0.0, 0.0, 0.0, 0.0, 0.0, 0.0, 0.0, 0.0]",,-0.00145465226703,0.00142479664475,0.000264347443894,"[0.0, 0.0, 0.0, 0.0, 0.0, 0.0, 0.0, 0.0, 0.0]",,0.291860073805,-0.0389129593968,0.0193972550333,"[0.0, 0.0, 0.0, 0.0, 0.0, 0.0, 0.0, 0.0, 0.0]"
1501822123599376916,,4413,,1501822123,599376916,"""imu""",,0.00504081869886,0.0149040335522,0.587463283532,0.809097862086,"[0.0, 0.0, 0.0, 0.0, 0.0, 0.0, 0.0, 0.0, 0.0]",,-0.00146362834225,0.000649148051431,0.000264347785242,"[0.0, 0.0, 0.0, 0.0, 0.0, 0.0, 0.0, 0.0, 0.0]",,0.298173010349,-0.0253240037709,0.00283472752199,"[0.0, 0.0, 0.0, 0.0, 0.0, 0.0, 0.0, 0.0, 0.0]"
1501822123601402997,,4434,,1501822123,601402997,"""imu""",,0.00503767163088,0.0149013346701,0.587464864422,0.809096783555,"[0.0, 0.0, 0.0, 0.0, 0.0, 0.0, 0.0, 0.0, 0.0]",,-0.00165995845035,-0.000124332342878,0.000751732938599,"[0.0, 0.0, 0.0, 0.0, 0.0, 0.0, 0.0, 0.0, 0.0]",,0.265042543411,-0.0152548979968,-0.0186892170459,"[0.0, 0.0, 0.0, 0.0, 0.0, 0.0, 0.0, 0.0, 0.0]"
1501822123609314918,,4499,,1501822123,609314918,"""imu""",,0.00503742618961,0.0149003991763,0.587466160257,0.809095861437,"[0.0, 0.0, 0.0, 0.0, 0.0, 0.0, 0.0, 0.0, 0.0]",,-0.000305126968049,-0.000236979676361,0.000636466047112,"[0.0, 0.0, 0.0, 0.0, 0.0, 0.0, 0.0, 0.0, 0.0]",,0.266333341599,-0.0104010226205,-0.0638740137219,"[0.0, 0.0, 0.0, 0.0, 0.0, 0.0, 0.0, 0.0, 0.0]"
1501822123611346006,,4521,,1501822123,611346006,"""imu""",,0.00503699967457,0.014897241523,0.5874683181,0.809094355473,"[0.0, 0.0, 0.0, 0.0, 0.0, 0.0, 0.0, 0.0, 0.0]",,-0.000889431825802,-0.000909000923347,0.00103212953659,"[0.0, 0.0, 0.0, 0.0, 0.0, 0.0, 0.0, 0.0, 0.0]",,0.266319572926,0.00298540457152,-0.057155366987,"[0.0, 0.0, 0.0, 0.0, 0.0, 0.0, 0.0, 0.0, 0.0]"
1501822123619333982,,4587,,1501822123,619333982,"""imu""",,0.00503667049018,0.0148956335847,0.587470604126,0.80909272728,"[0.0, 0.0, 0.0, 0.0, 0.0, 0.0, 0.0, 0.0, 0.0]",,-0.000494724369541,-0.000428723324968,0.00112385124923,"[0.0, 0.0, 0.0, 0.0, 0.0, 0.0, 0.0, 0.0, 0.0]",,0.2537727952,0.0186727251858,-0.0520985759795,"[0.0, 0.0, 0.0, 0.0, 0.0, 0.0, 0.0, 0.0, 0.0]"
1501822123621347904,,4607,,1501822123,621347904,"""imu""",,0.00503961816826,0.0148939829729,0.587472223552,0.809091563468,"[0.0, 0.0, 0.0, 0.0, 0.0, 0.0, 0.0, 0.0, 0.0]",,0.000558795500076,-0.00121666670445,0.000818600843408,"[0.0, 0.0, 0.0, 0.0, 0.0, 0.0, 0.0, 0.0, 0.0]",,0.253956347704,-0.0105996886268,-0.0405071415007,"[0.0, 0.0, 0.0, 0.0, 0.0, 0.0, 0.0, 0.0, 0.0]"
1501822123629312038,,4673,,1501822123,629312038,"""imu""",,0.00503970936869,0.0148917817348,0.587474506024,0.809089946136,"[0.0, 0.0, 0.0, 0.0, 0.0, 0.0, 0.0, 0.0, 0.0]",,-0.000498089406217,-0.000719590742859,0.0011238511192,"[0.0, 0.0, 0.0, 0.0, 0.0, 0.0, 0.0, 0.0, 0.0]",,0.26613599062,0.00968469399959,0.0276992823929,"[0.0, 0.0, 0.0, 0.0, 0.0, 0.0, 0.0, 0.0, 0.0]"
1501822123631386041,,4694,,1501822123,631386041,"""imu""",,0.00503952754325,0.0148894323388,0.587474442015,0.809090036984,"[0.0, 0.0, 0.0, 0.0, 0.0, 0.0, 0.0, 0.0, 0.0]",,-0.000610732602893,-0.000718287120304,-3.82849887552e-05,"[0.0, 0.0, 0.0, 0.0, 0.0, 0.0, 0.0, 0.0, 0.0]",,0.291391283274,0.0215710494667,0.00905010569841,"[0.0, 0.0, 0.0, 0.0, 0.0, 0.0, 0.0, 0.0, 0.0]"
1501822123639317035,,4760,,1501822123,639317035,"""imu""",,0.00503883530139,0.0148870031174,0.58747517597,0.809089553076,"[0.0, 0.0, 0.0, 0.0, 0.0, 0.0, 0.0, 0.0, 0.0]",,-0.000798272914001,-0.000619147827834,0.000352146325451,"[0.0, 0.0, 0.0, 0.0, 0.0, 0.0, 0.0, 0.0, 0.0]",,0.296095132828,0.0165949575603,-0.00230475375429,"[0.0, 0.0, 0.0, 0.0, 0.0, 0.0, 0.0, 0.0, 0.0]"
1501822123641346931,,4780,,1501822123,641346931,"""imu""",,0.00503552182152,0.014883291176,0.587476967803,0.809088340952,"[0.0, 0.0, 0.0, 0.0, 0.0, 0.0, 0.0, 0.0, 0.0]",,-0.00195285519569,-0.000411848824998,0.000852612648453,"[0.0, 0.0, 0.0, 0.0, 0.0, 0.0, 0.0, 0.0, 0.0]",,0.330480486155,0.0157972220331,-0.011007479392,"[0.0, 0.0, 0.0, 0.0, 0.0, 0.0, 0.0, 0.0, 0.0]"
1501822123649305105,,4846,,1501822123,649305105,"""imu""",,0.00503467831028,0.0148840189546,0.587477866911,0.809087679973,"[0.0, 0.0, 0.0, 0.0, 0.0, 0.0, 0.0, 0.0, 0.0]",,-0.000105991933974,0.000439500219837,0.00043994416671,"[0.0, 0.0, 0.0, 0.0, 0.0, 0.0, 0.0, 0.0, 0.0]",,0.329348087311,0.0365586616099,-0.0207543224096,"[0.0, 0.0, 0.0, 0.0, 0.0, 0.0, 0.0, 0.0, 0.0]"
1501822123651346921,,4866,,1501822123,651346921,"""imu""",,0.00503289003372,0.014882298284,0.587478619291,0.809087176447,"[0.0, 0.0, 0.0, 0.0, 0.0, 0.0, 0.0, 0.0, 0.0]",,-0.00098655703768,-0.000132123543857,0.00035476325833,"[0.0, 0.0, 0.0, 0.0, 0.0, 0.0, 0.0, 0.0, 0.0]",,0.319266855717,0.0314389914274,-0.0175659656525,"[0.0, 0.0, 0.0, 0.0, 0.0, 0.0, 0.0, 0.0, 0.0]"
1501822123659332036,,4933,,1501822123,659332036,"""imu""",,0.0050327459757,0.0148808291503,0.587480506901,0.809085833767,"[0.0, 0.0, 0.0, 0.0, 0.0, 0.0, 0.0, 0.0, 0.0]",,-0.00040039128311,-0.000429813849123,0.000928637185085,"[0.0, 0.0, 0.0, 0.0, 0.0, 0.0, 0.0, 0.0, 0.0]",,0.31472286582,0.0449015162885,-0.00559818698093,"[0.0, 0.0, 0.0, 0.0, 0.0, 0.0, 0.0, 0.0, 0.0]"
1501822123661343097,,4954,,1501822123,661343097,"""imu""",,0.00503415590232,0.0148771859695,0.587482773666,0.809084246082,"[0.0, 0.0, 0.0, 0.0, 0.0, 0.0, 0.0, 0.0, 0.0]",,-0.000410116599955,-0.00149636025652,0.00112254476586,"[0.0, 0.0, 0.0, 0.0, 0.0, 0.0, 0.0, 0.0, 0.0]",,0.31181833148,0.041559278965,0.0026830015704,"[0.0, 0.0, 0.0, 0.0, 0.0, 0.0, 0.0, 0.0, 0.0]"
1501822123669425964,,5019,,1501822123,669425964,"""imu""",,0.00503503030719,0.0148734602823,0.587485054127,0.809082653272,"[0.0, 0.0, 0.0, 0.0, 0.0, 0.0, 0.0, 0.0, 0.0]",,-0.000602888306115,-0.0013971602367,0.00112516124361,"[0.0, 0.0, 0.0, 0.0, 0.0, 0.0, 0.0, 0.0, 0.0]",,0.281868100166,0.0473717302084,-0.0103380018845,"[0.0, 0.0, 0.0, 0.0, 0.0, 0.0, 0.0, 0.0, 0.0]"
1501822123671366930,,5042,,1501822123,671366930,"""imu""",,0.00503596210118,0.0148683200206,0.587485778993,0.809082215617,"[0.0, 0.0, 0.0, 0.0, 0.0, 0.0, 0.0, 0.0, 0.0]",,-0.000909803512714,-0.00187845365288,0.00035345618979,"[0.0, 0.0, 0.0, 0.0, 0.0, 0.0, 0.0, 0.0, 0.0]",,0.274220794439,0.043144736439,0.00777476327494,"[0.0, 0.0, 0.0, 0.0, 0.0, 0.0, 0.0, 0.0, 0.0]"
1501822123679327964,,5105,,1501822123,679327964,"""imu""",,0.00503688762253,0.014863179089,0.587486307782,0.809081920351,"[0.0, 0.0, 0.0, 0.0, 0.0, 0.0, 0.0, 0.0, 0.0]",,-0.000911111101403,-0.00187843856857,0.000256502919551,"[0.0, 0.0, 0.0, 0.0, 0.0, 0.0, 0.0, 0.0, 0.0]",,0.285305827856,0.0347329042852,-0.00732698431239,"[0.0, 0.0, 0.0, 0.0, 0.0, 0.0, 0.0, 0.0, 0.0]"
1501822123681356906,,5128,,1501822123,681356906,"""imu""",,0.00503652695376,0.0148606915695,0.587486838188,0.809081583153,"[0.0, 0.0, 0.0, 0.0, 0.0, 0.0, 0.0, 0.0, 0.0]",,-0.00070375241151,-0.000717209697393,0.000253887075733,"[0.0, 0.0, 0.0, 0.0, 0.0, 0.0, 0.0, 0.0, 0.0]",,0.290325462818,0.041660476476,-0.00586425326765,"[0.0, 0.0, 0.0, 0.0, 0.0, 0.0, 0.0, 0.0, 0.0]"
1501822123689327955,,5191,,1501822123,689327955,"""imu""",,0.00503453463968,0.0148579538426,0.587486625457,0.809081800301,"[0.0, 0.0, 0.0, 0.0, 0.0, 0.0, 0.0, 0.0, 0.0]",,-0.00128730185088,-0.000419549625767,-0.000126078888263,"[0.0, 0.0, 0.0, 0.0, 0.0, 0.0, 0.0, 0.0, 0.0]",,0.28559049964,0.046535577625,-0.000609183101915,"[0.0, 0.0, 0.0, 0.0, 0.0, 0.0, 0.0, 0.0, 0.0]"
1501822123691345930,,5214,,1501822123,691345930,"""imu""",,0.00502898516856,0.0148556542526,0.587487081552,0.809081545862,"[0.0, 0.0, 0.0, 0.0, 0.0, 0.0, 0.0, 0.0, 0.0]",,-0.0023385774091,0.000562305918299,0.000179172013329,"[0.0, 0.0, 0.0, 0.0, 0.0, 0.0, 0.0, 0.0, 0.0]",,0.307783961296,0.0476899072528,0.0390736237168,"[0.0, 0.0, 0.0, 0.0, 0.0, 0.0, 0.0, 0.0, 0.0]"
1501822123699333906,,5277,,1501822123,699333906,"""imu""",,0.00502667511889,0.0148550605,0.587487245314,0.809081452208,"[0.0, 0.0, 0.0, 0.0, 0.0, 0.0, 0.0, 0.0, 0.0]",,-0.000887921314122,0.000351580403719,6.25971430413e-05,"[0.0, 0.0, 0.0, 0.0, 0.0, 0.0, 0.0, 0.0, 0.0]",,0.348514318466,0.0258112065494,0.023873526603,"[0.0, 0.0, 0.0, 0.0, 0.0, 0.0, 0.0, 0.0, 0.0]"
1501822123701350927,,5300,,1501822123,701350927,"""imu""",,0.0050215835866,0.0148512954117,0.587488098966,0.809080933094,"[0.0, 0.0, 0.0, 0.0, 0.0, 0.0, 0.0, 0.0, 0.0]",,-0.00253658811749,-1.72170280155e-05,0.000375696348182,"[0.0, 0.0, 0.0, 0.0, 0.0, 0.0, 0.0, 0.0, 0.0]",,0.349750071764,0.046121224761,0.00737997330725,"[0.0, 0.0, 0.0, 0.0, 0.0, 0.0, 0.0, 0.0, 0.0]"
1501822123709311008,,5365,,1501822123,709311008,"""imu""",,0.00501832765399,0.0148479213564,0.587489885557,0.809079717944,"[0.0, 0.0, 0.0, 0.0, 0.0, 0.0, 0.0, 0.0, 0.0]",,-0.00185478311821,-0.000316014459525,0.00085130896088,"[0.0, 0.0, 0.0, 0.0, 0.0, 0.0, 0.0, 0.0, 0.0]",,0.389968425035,0.0522801019251,-0.00445023644716,"[0.0, 0.0, 0.0, 0.0, 0.0, 0.0, 0.0, 0.0, 0.0]"
1501822123711355924,,5387,,1501822123,711355924,"""imu""",,0.00501486886406,0.0148438620648,0.587488937462,0.809080502304,"[0.0, 0.0, 0.0, 0.0, 0.0, 0.0, 0.0, 0.0, 0.0]",,-0.00206923364484,-0.000507470839785,-0.000503426358935,"[0.0, 0.0, 0.0, 0.0, 0.0, 0.0, 0.0, 0.0, 0.0]",,0.36009773612,0.0491673462093,-0.00068724132143,"[0.0, 0.0, 0.0, 0.0, 0.0, 0.0, 0.0, 0.0, 0.0]"
1501822123719357013,,5451,,1501822123,719357013,"""imu""",,0.00501366101977,0.0148408079356,0.587487728372,0.809081443759,"[0.0, 0.0, 0.0, 0.0, 0.0, 0.0, 0.0, 0.0, 0.0]",,-0.00110331356988,-0.000712586941281,-0.000613460652527,"[0.0, 0.0, 0.0, 0.0, 0.0, 0.0, 0.0, 0.0, 0.0]",,0.343019604683,0.0325249955058,-0.0105275642127,"[0.0, 0.0, 0.0, 0.0, 0.0, 0.0, 0.0, 0.0, 0.0]"
1501822123721354007,,5473,,1501822123,721354007,"""imu""",,0.00501299870883,0.0148345452555,0.587488111208,0.80908128473,"[0.0, 0.0, 0.0, 0.0, 0.0, 0.0, 0.0, 0.0, 0.0]",,-0.00168799641316,-0.00186944922956,0.000170017998504,"[0.0, 0.0, 0.0, 0.0, 0.0, 0.0, 0.0, 0.0, 0.0]",,0.295358091593,0.0329949967563,0.00141111784615,"[0.0, 0.0, 0.0, 0.0, 0.0, 0.0, 0.0, 0.0, 0.0]"
1501822123729341983,,5538,,1501822123,729341983,"""imu""",,0.00501369018914,0.0148304682251,0.587486475564,0.809082542855,"[0.0, 0.0, 0.0, 0.0, 0.0, 0.0, 0.0, 0.0, 0.0]",,-0.000727115863421,-0.00149269268839,-0.000812599628354,"[0.0, 0.0, 0.0, 0.0, 0.0, 0.0, 0.0, 0.0, 0.0]",,0.249298319221,0.0444799251854,-0.0116951027885,"[0.0, 0.0, 0.0, 0.0, 0.0, 0.0, 0.0, 0.0, 0.0]"
1501822123731359004,,5559,,1501822123,731359004,"""imu""",,0.00501307916552,0.0148245427676,0.587486657218,0.809082523331,"[0.0, 0.0, 0.0, 0.0, 0.0, 0.0, 0.0, 0.0, 0.0]",,-0.00159123459013,-0.00177360013737,7.17570664302e-05,"[0.0, 0.0, 0.0, 0.0, 0.0, 0.0, 0.0, 0.0, 0.0]",,0.252754896879,0.0458886735141,-0.012043193914,"[0.0, 0.0, 0.0, 0.0, 0.0, 0.0, 0.0, 0.0, 0.0]"
1501822123739334106,,5625,,1501822123,739334106,"""imu""",,0.00501313883213,0.0148205857166,0.587486408834,0.80908277581,"[0.0, 0.0, 0.0, 0.0, 0.0, 0.0, 0.0, 0.0, 0.0]",,-0.000909609692323,-0.00129664307045,-0.00013130650411,"[0.0, 0.0, 0.0, 0.0, 0.0, 0.0, 0.0, 0.0, 0.0]",,0.246329054236,0.0392047055066,-0.0122583024204,"[0.0, 0.0, 0.0, 0.0, 0.0, 0.0, 0.0, 0.0, 0.0]"
1501822123741398096,,5646,,1501822123,741398096,"""imu""",,0.005011172794,0.0148181825021,0.587485210631,0.809083702039,"[0.0, 0.0, 0.0, 0.0, 0.0, 0.0, 0.0, 0.0, 0.0]",,-0.00119577155294,-0.00032364120413,-0.000612150463095,"[0.0, 0.0, 0.0, 0.0, 0.0, 0.0, 0.0, 0.0, 0.0]",,0.262455165386,0.047199383378,-0.0240698829293,"[0.0, 0.0, 0.0, 0.0, 0.0, 0.0, 0.0, 0.0, 0.0]"
1501822123749355077,,5712,,1501822123,749355077,"""imu""",,0.00500818827708,0.014817159566,0.587482844265,0.809085457493,"[0.0, 0.0, 0.0, 0.0, 0.0, 0.0, 0.0, 0.0, 0.0]",,-0.00119576622142,0.000355141764001,-0.00119387249022,"[0.0, 0.0, 0.0, 0.0, 0.0, 0.0, 0.0, 0.0, 0.0]",,0.333433240652,0.0179346390069,-0.00793965347111,"[0.0, 0.0, 0.0, 0.0, 0.0, 0.0, 0.0, 0.0, 0.0]"
1501822123751353025,,5732,,1501822123,751353025,"""imu""",,0.00500322817782,0.0148185721459,0.587481871809,0.809086168417,"[0.0, 0.0, 0.0, 0.0, 0.0, 0.0, 0.0, 0.0, 0.0]",,-0.00126897194247,0.00161658611521,-0.000513888076231,"[0.0, 0.0, 0.0, 0.0, 0.0, 0.0, 0.0, 0.0, 0.0]",,0.361284226179,0.019684817642,0.00205971719697,"[0.0, 0.0, 0.0, 0.0, 0.0, 0.0, 0.0, 0.0, 0.0]"
1501822123759326934,,5799,,1501822123,759326934,"""imu""",,0.00500021869258,0.0148192990202,0.587480271701,0.809087335553,"[0.0, 0.0, 0.0, 0.0, 0.0, 0.0, 0.0, 0.0, 0.0]",,-0.000796014428561,0.000932329785373,-0.000811289698996,"[0.0, 0.0, 0.0, 0.0, 0.0, 0.0, 0.0, 0.0, 0.0]",,0.372610569,-0.00215526088141,0.00404055928811,"[0.0, 0.0, 0.0, 0.0, 0.0, 0.0, 0.0, 0.0, 0.0]"
1501822123761368036,,5807,,1501822123,761368036,"""imu""",,0.00499732429678,0.0148198254172,0.587477886168,0.809089075929,"[0.0, 0.0, 0.0, 0.0, 0.0, 0.0, 0.0, 0.0, 0.0]",,-0.000802368889567,0.000835434414181,-0.00119910440542,"[0.0, 0.0, 0.0, 0.0, 0.0, 0.0, 0.0, 0.0, 0.0]",,0.386786222458,-0.00907455198467,0.000490792794153,"[0.0, 0.0, 0.0, 0.0, 0.0, 0.0, 0.0, 0.0, 0.0]"
1501822123769381046,,5873,,1501822123,769381046,"""imu""",,0.00499691349116,0.014817332486,0.587476848097,0.809089877865,"[0.0, 0.0, 0.0, 0.0, 0.0, 0.0, 0.0, 0.0, 0.0]",,-0.000714217672319,-0.00071709019324,-0.000521736436671,"[0.0, 0.0, 0.0, 0.0, 0.0, 0.0, 0.0, 0.0, 0.0]",,0.387026965618,-0.000566263974179,-0.0141588365659,"[0.0, 0.0, 0.0, 0.0, 0.0, 0.0, 0.0, 0.0, 0.0]"
1501822123771430015,,5894,,1501822123,771430015,"""imu""",,0.00499894381945,0.0148147760754,0.58747634118,0.809090280206,"[0.0, 0.0, 0.0, 0.0, 0.0, 0.0, 0.0, 0.0, 0.0]",,5.85526134276e-05,-0.00130784681231,-0.00024133995246,"[0.0, 0.0, 0.0, 0.0, 0.0, 0.0, 0.0, 0.0, 0.0]",,0.343796461821,0.00176847074181,-0.0352430306375,"[0.0, 0.0, 0.0, 0.0, 0.0, 0.0, 0.0, 0.0, 0.0]"
1501822123779398918,,5958,,1501822123,779398918,"""imu""",,0.00500376429984,0.0148100155775,0.587476969238,0.809089881532,"[0.0, 0.0, 0.0, 0.0, 0.0, 0.0, 0.0, 0.0, 0.0]",,0.000438482321438,-0.00266980937005,0.000335149883132,"[0.0, 0.0, 0.0, 0.0, 0.0, 0.0, 0.0, 0.0, 0.0]",,0.312453836203,0.0152772897854,-0.0720514878631,"[0.0, 0.0, 0.0, 0.0, 0.0, 0.0, 0.0, 0.0, 0.0]"
1501822123781363010,,5980,,1501822123,781363010,"""imu""",,0.00500893512384,0.0148051988062,0.587477981971,0.809089202348,"[0.0, 0.0, 0.0, 0.0, 0.0, 0.0, 0.0, 0.0, 0.0]",,0.000536924582207,-0.00276791720775,0.000527749290051,"[0.0, 0.0, 0.0, 0.0, 0.0, 0.0, 0.0, 0.0, 0.0]",,0.264614522457,0.0118914386258,-0.0732344388962,"[0.0, 0.0, 0.0, 0.0, 0.0, 0.0, 0.0, 0.0, 0.0]"
1501822123789324045,,6044,,1501822123,789324045,"""imu""",,0.00501409969267,0.0148003813603,0.587478798612,0.809088665535,"[0.0, 0.0, 0.0, 0.0, 0.0, 0.0, 0.0, 0.0, 0.0]",,0.00053561738363,-0.00276790160329,0.00043079566221,"[0.0, 0.0, 0.0, 0.0, 0.0, 0.0, 0.0, 0.0, 0.0]",,0.240420654416,0.00853736605495,-0.0185787864029,"[0.0, 0.0, 0.0, 0.0, 0.0, 0.0, 0.0, 0.0, 0.0]"
1501822123791357040,,6066,,1501822123,791357040,"""imu""",,0.00501930438346,0.0147979841236,0.58747880289,0.809088674006,"[0.0, 0.0, 0.0, 0.0, 0.0, 0.0, 0.0, 0.0, 0.0]",,0.0011210451773,-0.00199892372136,3.51321971113e-05,"[0.0, 0.0, 0.0, 0.0, 0.0, 0.0, 0.0, 0.0, 0.0]",,0.219685614109,-0.00306884245947,0.00825454667211,"[0.0, 0.0, 0.0, 0.0, 0.0, 0.0, 0.0, 0.0, 0.0]"
1501822123799319982,,6130,,1501822123,799319982,"""imu""",,0.00502172387293,0.014795707334,0.587478087348,0.809089220185,"[0.0, 0.0, 0.0, 0.0, 0.0, 0.0, 0.0, 0.0, 0.0]",,0.00025114223505,-0.00131007343864,-0.00034090981423,"[0.0, 0.0, 0.0, 0.0, 0.0, 0.0, 0.0, 0.0, 0.0]",,0.292320430279,-0.0106105627492,0.0319979637861,"[0.0, 0.0, 0.0, 0.0, 0.0, 0.0, 0.0, 0.0, 0.0]"
1501822123801362037,,6153,,1501822123,801362037,"""imu""",,0.0050214920827,0.0147951050588,0.587478005331,0.80908929219,"[0.0, 0.0, 0.0, 0.0, 0.0, 0.0, 0.0, 0.0, 0.0]",,-0.000216205914543,-0.000141036697348,-4.35079395184e-05,"[0.0, 0.0, 0.0, 0.0, 0.0, 0.0, 0.0, 0.0, 0.0]",,0.360975563526,-0.0275911130011,0.0219141691923,"[0.0, 0.0, 0.0, 0.0, 0.0, 0.0, 0.0, 0.0, 0.0]"
1501822123809370040,,6217,,1501822123,809370040,"""imu""",,0.00501715008337,0.0147951882851,0.587476247804,0.809090593738,"[0.0, 0.0, 0.0, 0.0, 0.0, 0.0, 0.0, 0.0, 0.0]",,-0.00137788118704,0.00103603481266,-0.000900393828573,"[0.0, 0.0, 0.0, 0.0, 0.0, 0.0, 0.0, 0.0, 0.0]",,0.412692993879,-0.00933682452887,0.0199975632131,"[0.0, 0.0, 0.0, 0.0, 0.0, 0.0, 0.0, 0.0, 0.0]"
1501822123811364889,,6240,,1501822123,811364889,"""imu""",,0.00501254661069,0.0147965453166,0.587475856085,0.80909088188,"[0.0, 0.0, 0.0, 0.0, 0.0, 0.0, 0.0, 0.0, 0.0]",,-0.0011692213453,0.00151846514376,-0.000224333724845,"[0.0, 0.0, 0.0, 0.0, 0.0, 0.0, 0.0, 0.0, 0.0]",,0.433906853199,-0.00109500030521,0.00719804083928,"[0.0, 0.0, 0.0, 0.0, 0.0, 0.0, 0.0, 0.0, 0.0]"
1501822123819334030,,6303,,1501822123,819334030,"""imu""",,0.00500970987918,0.0147982859297,0.587474240734,0.809092040508,"[0.0, 0.0, 0.0, 0.0, 0.0, 0.0, 0.0, 0.0, 0.0]",,-0.000501805283157,0.00121983479984,-0.000815212725136,"[0.0, 0.0, 0.0, 0.0, 0.0, 0.0, 0.0, 0.0, 0.0]",,0.40204012394,-0.0288304165006,-0.0189295038581,"[0.0, 0.0, 0.0, 0.0, 0.0, 0.0, 0.0, 0.0, 0.0]"
1501822123821360111,,6326,,1501822123,821360111,"""imu""",,0.00500994978206,0.0147974275799,0.58747395407,0.809092262866,"[0.0, 0.0, 0.0, 0.0, 0.0, 0.0, 0.0, 0.0, 0.0]",,-0.000122812362866,-0.000336055299385,-0.000141769277958,"[0.0, 0.0, 0.0, 0.0, 0.0, 0.0, 0.0, 0.0, 0.0]",,0.366280466318,-0.0290324799716,-0.0688043534756,"[0.0, 0.0, 0.0, 0.0, 0.0, 0.0, 0.0, 0.0, 0.0]"
1501822123829334974,,6390,,1501822123,829334974,"""imu""",,0.00501373935273,0.0147957985288,0.587474572351,0.809091820256,"[0.0, 0.0, 0.0, 0.0, 0.0, 0.0, 0.0, 0.0, 0.0]",,0.000840858589326,-0.00141386598094,0.000329918162987,"[0.0, 0.0, 0.0, 0.0, 0.0, 0.0, 0.0, 0.0, 0.0]",,0.323373913765,0.00507755344734,-0.0935518890619,"[0.0, 0.0, 0.0, 0.0, 0.0, 0.0, 0.0, 0.0, 0.0]"
1501822123831356048,,6412,,1501822123,831356048,"""imu""",,0.00502012888148,0.0147921577264,0.58747475824,0.809091712235,"[0.0, 0.0, 0.0, 0.0, 0.0, 0.0, 0.0, 0.0, 0.0]",,0.00121144623252,-0.0026787512455,0.00013077806559,"[0.0, 0.0, 0.0, 0.0, 0.0, 0.0, 0.0, 0.0, 0.0]",,0.28442388773,0.00314755365252,-0.070136256516,"[0.0, 0.0, 0.0, 0.0, 0.0, 0.0, 0.0, 0.0, 0.0]"
1501822123839327096,,6435,,1501822123,839327096,"""imu""",,0.00502908581457,0.0147861699719,0.587475301014,0.809091371955,"[0.0, 0.0, 0.0, 0.0, 0.0, 0.0, 0.0, 0.0, 0.0]",,0.00148919702938,-0.00403953111526,0.000320761043525,"[0.0, 0.0, 0.0, 0.0, 0.0, 0.0, 0.0, 0.0, 0.0]",,0.311470896006,-0.00716201029718,-0.0393716096878,"[0.0, 0.0, 0.0, 0.0, 0.0, 0.0, 0.0, 0.0, 0.0]"
1501822123841363906,,6457,,1501822123,841363906,"""imu""",,0.0050386095317,0.0147802680764,0.587476810368,0.809090324605,"[0.0, 0.0, 0.0, 0.0, 0.0, 0.0, 0.0, 0.0, 0.0]",,0.00168851097021,-0.00413880590645,0.000802913355167,"[0.0, 0.0, 0.0, 0.0, 0.0, 0.0, 0.0, 0.0, 0.0]",,0.336547911167,-0.0104192579165,-0.00277703604661,"[0.0, 0.0, 0.0, 0.0, 0.0, 0.0, 0.0, 0.0, 0.0]"
1501822123849330902,,6481,,1501822123,849330902,"""imu""",,0.00504582111858,0.0147780674021,0.587478726788,0.809088928354,"[0.0, 0.0, 0.0, 0.0, 0.0, 0.0, 0.0, 0.0, 0.0]",,0.00180827116582,-0.00239474852194,0.000995512567031,"[0.0, 0.0, 0.0, 0.0, 0.0, 0.0, 0.0, 0.0, 0.0]",,0.38712695241,0.00251556793228,0.0386665314436,"[0.0, 0.0, 0.0, 0.0, 0.0, 0.0, 0.0, 0.0, 0.0]"
1501822123851399898,,6501,,1501822123,851399898,"""imu""",,0.00504669788281,0.0147785103794,0.58748056911,0.809087577083,"[0.0, 0.0, 0.0, 0.0, 0.0, 0.0, 0.0, 0.0, 0.0]",,0.000379682929985,-5.09592721185e-05,0.000918180311673,"[0.0, 0.0, 0.0, 0.0, 0.0, 0.0, 0.0, 0.0, 0.0]",,0.394588977098,0.00672272220254,0.0675638020039,"[0.0, 0.0, 0.0, 0.0, 0.0, 0.0, 0.0, 0.0, 0.0]"
1501822123859338998,,6564,,1501822123,859338998,"""imu""",,0.00504570295135,0.0147815189411,0.587480858295,0.809087318351,"[0.0, 0.0, 0.0, 0.0, 0.0, 0.0, 0.0, 0.0, 0.0]",,0.000383804360325,0.00120959073225,0.000142550557485,"[0.0, 0.0, 0.0, 0.0, 0.0, 0.0, 0.0, 0.0, 0.0]",,0.386144667864,-0.013304118067,0.0740808993578,"[0.0, 0.0, 0.0, 0.0, 0.0, 0.0, 0.0, 0.0, 0.0]"
1501822123861365079,,6584,,1501822123,861365079,"""imu""",,0.0050419915872,0.0147837790822,0.587481809053,0.809086609844,"[0.0, 0.0, 0.0, 0.0, 0.0, 0.0, 0.0, 0.0, 0.0]",,-0.000674203546903,0.00160971053027,0.000447800752,"[0.0, 0.0, 0.0, 0.0, 0.0, 0.0, 0.0, 0.0, 0.0]",,0.365569502115,-0.00638518389314,0.0194207411259,"[0.0, 0.0, 0.0, 0.0, 0.0, 0.0, 0.0, 0.0, 0.0]"
1501822123869344949,,6651,,1501822123,869344949,"""imu""",,0.00503556871368,0.0147814546635,0.587482285847,0.80908634611,"[0.0, 0.0, 0.0, 0.0, 0.0, 0.0, 0.0, 0.0, 0.0]",,-0.00262717018444,0.000759589133778,0.000183102159003,"[0.0, 0.0, 0.0, 0.0, 0.0, 0.0, 0.0, 0.0, 0.0]",,0.324441760778,-0.0148891182616,-0.0554105490446,"[0.0, 0.0, 0.0, 0.0, 0.0, 0.0, 0.0, 0.0, 0.0]"
1501822123871364116,,6671,,1501822123,871364116,"""imu""",,0.00503527804836,0.0147793063994,0.587483203209,0.809085721061,"[0.0, 0.0, 0.0, 0.0, 0.0, 0.0, 0.0, 0.0, 0.0]",,-0.000603062165801,-0.00062140098175,0.00044649368346,"[0.0, 0.0, 0.0, 0.0, 0.0, 0.0, 0.0, 0.0, 0.0]",,0.308918893337,0.00326822791249,-0.115318849683,"[0.0, 0.0, 0.0, 0.0, 0.0, 0.0, 0.0, 0.0, 0.0]"
1501822123879348039,,6737,,1501822123,879348039,"""imu""",,0.0050382505259,0.0147759060616,0.587484056477,0.809085145097,"[0.0, 0.0, 0.0, 0.0, 0.0, 0.0, 0.0, 0.0, 0.0]",,0.000159052289674,-0.00179384822396,0.000436028747744,"[0.0, 0.0, 0.0, 0.0, 0.0, 0.0, 0.0, 0.0, 0.0]",,0.310062497854,0.0231016445905,-0.167214110494,"[0.0, 0.0, 0.0, 0.0, 0.0, 0.0, 0.0, 0.0, 0.0]"
1501822123881359100,,6757,,1501822123,881359100,"""imu""",,0.00504405818356,0.0147715143977,0.587486422726,0.809083470943,"[0.0, 0.0, 0.0, 0.0, 0.0, 0.0, 0.0, 0.0, 0.0]",,0.000836927956012,-0.00277138243806,0.00120250162629,"[0.0, 0.0, 0.0, 0.0, 0.0, 0.0, 0.0, 0.0, 0.0]",,0.365389555693,0.0139583712444,-0.118212543428,"[0.0, 0.0, 0.0, 0.0, 0.0, 0.0, 0.0, 0.0, 0.0]"
1501822123889358997,,6823,,1501822123,889358997,"""imu""",,0.00505290761008,0.0147678122147,0.587487727836,0.809082535647,"[0.0, 0.0, 0.0, 0.0, 0.0, 0.0, 0.0, 0.0, 0.0]",,0.00198814572117,-0.00326954882628,0.00070203559587,"[0.0, 0.0, 0.0, 0.0, 0.0, 0.0, 0.0, 0.0, 0.0]",,0.391691535711,0.0262669585645,-0.0462322682142,"[0.0, 0.0, 0.0, 0.0, 0.0, 0.0, 0.0, 0.0, 0.0]"
1501822123891374111,,6844,,1501822123,891374111,"""imu""",,0.00505968995872,0.0147611593191,0.587489114319,0.809081607917,"[0.0, 0.0, 0.0, 0.0, 0.0, 0.0, 0.0, 0.0, 0.0]",,0.000625275634065,-0.00373862174003,0.000720348924535,"[0.0, 0.0, 0.0, 0.0, 0.0, 0.0, 0.0, 0.0, 0.0]",,0.411158025265,0.011120678857,0.0386594161391,"[0.0, 0.0, 0.0, 0.0, 0.0, 0.0, 0.0, 0.0, 0.0]"
1501822123899326086,,6901,,1501822123,899326086,"""imu""",,0.00506602065824,0.0147559726037,0.587490299334,0.809080802451,"[0.0, 0.0, 0.0, 0.0, 0.0, 0.0, 0.0, 0.0, 0.0]",,0.000824595101474,-0.00315911372564,0.000620779339094,"[0.0, 0.0, 0.0, 0.0, 0.0, 0.0, 0.0, 0.0, 0.0]",,0.408175706863,-0.00162001361605,0.0658660680056,"[0.0, 0.0, 0.0, 0.0, 0.0, 0.0, 0.0, 0.0, 0.0]"
