rosbagTimestamp,header,seq,stamp,secs,nsecs,frame_id,pose,position,x,y,z,orientation,x,y,z,w
1501822123031317949,,9,,1501822123,31317949,"""map""",,,1294.57892829,-1777.58343618,-5.60176535297,,0.00834590176418,0.018899700941,0.58461709242,0.811046239421
1501822123036323070,,73,,1501822123,36323070,"""map""",,,1294.57882322,-1777.58317339,-5.60175838045,,0.00834310586068,0.0189070347504,0.584618576448,0.811045027537
1501822123041313886,,91,,1501822123,41313886,"""map""",,,1294.57871949,-1777.58290589,-5.60174904136,,0.008338020567,0.0189133711254,0.584619350864,0.811044373879
1501822123046319007,,161,,1501822123,46319007,"""map""",,,1294.57861667,-1777.58263437,-5.60173881352,,0.0083330670159,0.018918297456,0.584620923272,0.811043176463
1501822123051310062,,182,,1501822123,51310062,"""map""",,,1294.57851661,-1777.5823649,-5.60172835726,,0.00833206195215,0.0189200964359,0.584621626672,0.811042637795
1501822123056314945,,248,,1501822123,56314945,"""map""",,,1294.57841632,-1777.58209343,-5.60171879997,,0.00833146708762,0.0189188769728,0.584624120703,0.811040874582
1501822123061312913,,270,,1501822123,61312913,"""map""",,,1294.57832058,-1777.58182214,-5.60171127859,,0.00833505556431,0.0189188391552,0.584625889925,0.811039563279
1501822123066318035,,334,,1501822123,66318035,"""map""",,,1294.57822746,-1777.58154806,-5.60170481551,,0.00834005285892,0.0189197770518,0.584628197868,0.811037826376
1501822123071316003,,356,,1501822123,71316003,"""map""",,,1294.57813627,-1777.58126935,-5.60169707643,,0.00834243789044,0.0189218611012,0.584629782965,0.811036610625
1501822123076320886,,420,,1501822123,76320886,"""map""",,,1294.57804438,-1777.58098532,-5.60168683299,,0.00834178451001,0.0189223890454,0.584631866698,0.811035102979
1501822123086330890,,495,,1501822123,86330890,"""map""",,,1294.57786479,-1777.5803983,-5.60166521531,,0.00833210412085,0.0189282101779,0.584636621495,0.811031639153
1501822123091317892,,518,,1501822123,91317892,"""map""",,,1294.57777665,-1777.58009923,-5.60165585891,,0.00832385584906,0.018931441945,0.584637127613,0.811031283581
1501822123096323013,,582,,1501822123,96323013,"""map""",,,1294.57769104,-1777.57979727,-5.60164846808,,0.00831710437818,0.0189351134158,0.584638372252,0.811030369928
1501822123101306915,,605,,1501822123,101306915,"""map""",,,1294.57760787,-1777.57949577,-5.60164365893,,0.00831207735983,0.0189376171579,0.584639972405,0.811029209519
1501822123106312036,,669,,1501822123,106312036,"""map""",,,1294.57752571,-1777.57919314,-5.60164090128,,0.00830996352774,0.0189377047827,0.584642300134,0.811027551158
1501822123111316919,,691,,1501822123,111316919,"""map""",,,1294.57744669,-1777.57889003,-5.60164012363,,0.00831139437879,0.0189382178316,0.584644323157,0.811026066183
1501822123116322040,,727,,1501822123,116322040,"""map""",,,1294.57736804,-1777.5785878,-5.60163937525,,0.00831560648637,0.0189356396929,0.584646691327,0.811024376057
1501822123121309995,,749,,1501822123,121309995,"""map""",,,1294.577288,-1777.57828363,-5.60163913198,,0.00831714042473,0.0189309118017,0.58464798012,0.811023541641
1501822123126315116,,813,,1501822123,126315116,"""map""",,,1294.57720761,-1777.57797673,-5.60163939603,,0.00831917340993,0.0189250533357,0.584649266345,0.811022730305
1501822123131309986,,835,,1501822123,131309986,"""map""",,,1294.57712871,-1777.57766428,-5.60164204609,,0.0083176764904,0.0189229393538,0.584650419057,0.811021964019
1501822123136315107,,900,,1501822123,136315107,"""map""",,,1294.57705104,-1777.57734869,-5.60164622837,,0.00831593035593,0.0189215600369,0.584650784324,0.811021750792
1501822123141313076,,921,,1501822123,141313076,"""map""",,,1294.57697607,-1777.57702746,-5.60165276672,,0.00831244511418,0.0189243069685,0.584650566314,0.811021879588
1501822123146317958,,988,,1501822123,146317958,"""map""",,,1294.57690246,-1777.57670024,-5.60166102323,,0.0083072578032,0.0189285599427,0.584649004845,0.81102295912
1501822123151314973,,1009,,1501822123,151314973,"""map""",,,1294.57683014,-1777.57637077,-5.60166931242,,0.00830359681213,0.0189315057623,0.584647806178,0.811023791945
1501822123156320095,,1075,,1501822123,156320095,"""map""",,,1294.57675635,-1777.57603932,-5.60167723764,,0.00830117550681,0.0189302439976,0.584648189916,0.811023569556
1501822123181322097,,1112,,1501822123,181322097,"""map""",,,1294.57638999,-1777.57437337,-5.60174535823,,0.00831171703387,0.0189064174607,0.584648453685,0.811023827235
1501822123186326980,,1177,,1501822123,186326980,"""map""",,,1294.57631833,-1777.5740316,-5.60176228968,,0.00831189479462,0.0189046873901,0.584646012354,0.811025625636
1501822123191324949,,1190,,1501822123,191324949,"""map""",,,1294.57624619,-1777.5736827,-5.60177867671,,0.00830840333574,0.0189039417624,0.584643274091,0.811027652722
1501822123201319932,,1254,,1501822123,201319932,"""map""",,,1294.57610042,-1777.57296347,-5.60181036808,,0.00829411770389,0.0189011217228,0.584639598336,0.811030514387
1501822123206325054,,1317,,1501822123,206325054,"""map""",,,1294.5760303,-1777.57259761,-5.6018271227,,0.00828969356214,0.018899677766,0.584638468462,0.811031407749
1501822123211316108,,1340,,1501822123,211316108,"""map""",,,1294.57596084,-1777.57223165,-5.60184476775,,0.00828741966962,0.0188955980898,0.584637303932,0.811032365506
1501822123216320991,,1402,,1501822123,216320991,"""map""",,,1294.57589516,-1777.57186277,-5.6018643511,,0.0082886029295,0.0188936917303,0.584634638457,0.811034319243
1501822123226330995,,1461,,1501822123,226330995,"""map""",,,1294.5757611,-1777.57112351,-5.60190286799,,0.00829888536494,0.0188831423623,0.584635050288,0.811034162912
1501822123231336116,,1483,,1501822123,231336116,"""map""",,,1294.57569357,-1777.57075002,-5.60192085794,,0.00830381769067,0.0188772918329,0.584634678163,0.81103451687
1501822123241336107,,1553,,1501822123,241336107,"""map""",,,1294.57555914,-1777.56998768,-5.60195567603,,0.008304274374,0.0188726178719,0.584633543219,0.811035439093
1501822123246340990,,1608,,1501822123,246340990,"""map""",,,1294.57548984,-1777.5695993,-5.60197253264,,0.00829866863027,0.0188703371401,0.584632653243,0.811036191077
1501822123251327991,,1626,,1501822123,251327991,"""map""",,,1294.57542363,-1777.56920724,-5.60199092249,,0.00829265150404,0.0188724824342,0.584632711942,0.811036160393
1501822123256333112,,1692,,1501822123,256333112,"""map""",,,1294.57535641,-1777.56880965,-5.6020100252,,0.00828492524255,0.0188731756145,0.584631065219,0.811037410258
1501822123261332988,,1711,,1501822123,261332988,"""map""",,,1294.57529263,-1777.56840908,-5.60202960157,,0.00828112451032,0.0188751078167,0.584630864864,0.811037548533
1501822123266338109,,1778,,1501822123,266338109,"""map""",,,1294.57523231,-1777.56800511,-5.60204869363,,0.00828183773947,0.0188772897977,0.584629153305,0.811038724229
1501822123271338939,,1798,,1501822123,271338939,"""map""",,,1294.57517212,-1777.56759741,-5.60206611914,,0.00828399605356,0.0188774886152,0.584628797847,0.811038953788
1501822123276344060,,1864,,1501822123,276344060,"""map""",,,1294.57511172,-1777.56718853,-5.60208099904,,0.00828894303929,0.0188737228722,0.584628403275,0.811039275308
1501822123281330108,,1884,,1501822123,281330108,"""map""",,,1294.57505323,-1777.56678073,-5.60209451104,,0.00829731658685,0.0188693684298,0.584629292256,0.811038650194
1501822123286334991,,1950,,1501822123,286334991,"""map""",,,1294.57499555,-1777.56636752,-5.60210806277,,0.00830404665451,0.0188677309241,0.58462941332,0.811038532142
1501822123291340112,,1972,,1501822123,291340112,"""map""",,,1294.57493814,-1777.56595209,-5.60212121852,,0.00831016725713,0.0188674217063,0.584630324954,0.811037819502
1501822123296344995,,2019,,1501822123,296344995,"""map""",,,1294.57488179,-1777.56553225,-5.60213424581,,0.00831446045921,0.018870562899,0.584631449974,0.811036891457
1501822123301337957,,2042,,1501822123,301337957,"""map""",,,1294.57482477,-1777.56510588,-5.60214644947,,0.0083133528115,0.0188758564815,0.584631725861,0.811036580756
1501822123306343078,,2106,,1501822123,306343078,"""map""",,,1294.57476654,-1777.56467049,-5.60215766323,,0.00830801777933,0.0188817155566,0.584632709084,0.811035790288
1501822123311328887,,2128,,1501822123,311328887,"""map""",,,1294.57470885,-1777.56423029,-5.60216749366,,0.00830112701721,0.0188876704256,0.584633539845,0.811035123336
1501822123316334009,,2184,,1501822123,316334009,"""map""",,,1294.57465287,-1777.56378547,-5.60217622905,,0.00829671000432,0.0188921429549,0.584632937106,0.811035498846
1501822123321332931,,2207,,1501822123,321332931,"""map""",,,1294.57459856,-1777.56333856,-5.60218453492,,0.00829527933459,0.0188945367695,0.584633449792,0.811035088147
1501822123326338052,,2270,,1501822123,326338052,"""map""",,,1294.57454572,-1777.5628891,-5.60219355436,,0.0082970186507,0.0188949915813,0.584634677617,0.811034174682
1501822123331326961,,2293,,1501822123,331326961,"""map""",,,1294.57449577,-1777.56244021,-5.60220300474,,0.00830375573261,0.0188942271866,0.584635576004,0.811033475937
1501822123336332082,,2356,,1501822123,336332082,"""map""",,,1294.57444738,-1777.56198524,-5.60221301879,,0.00831135136726,0.0188943581359,0.584636636565,0.811032630573
1501822123341336965,,2379,,1501822123,341336965,"""map""",,,1294.57440235,-1777.56152451,-5.60222262804,,0.00832004740052,0.0188976081808,0.58463861557,0.811031039111
1501822123346342086,,2443,,1501822123,346342086,"""map""",,,1294.5743574,-1777.56105846,-5.60222982288,,0.00832739335437,0.0189002201588,0.584640050464,0.811029868495
1501822123351334095,,2465,,1501822123,351334095,"""map""",,,1294.5743134,-1777.56058681,-5.6022343302,,0.00833217057801,0.0189039774152,0.584641941559,0.811028368642
1501822123356338977,,2530,,1501822123,356338977,"""map""",,,1294.5742689,-1777.56010638,-5.60223717119,,0.00833205318252,0.0189087562908,0.584643177662,0.81102736738
1501822123361336946,,2552,,1501822123,361336946,"""map""",,,1294.57422567,-1777.55962148,-5.60223950267,,0.00833079150628,0.0189142483588,0.584643062465,0.811027335318
1501822123366342067,,2617,,1501822123,366342067,"""map""",,,1294.57418311,-1777.55912874,-5.60224335592,,0.00832740094887,0.0189211637679,0.584644568091,0.811026123474
1501822123371330976,,2638,,1501822123,371330976,"""map""",,,1294.57414361,-1777.5586327,-5.60224909314,,0.00832536835983,0.0189290558883,0.584645236771,0.811025478148
1501822123376336097,,2704,,1501822123,376336097,"""map""",,,1294.5741055,-1777.5581303,-5.60225558635,,0.00832395972519,0.01893561948,0.584645507857,0.811025143971
1501822123381336927,,2725,,1501822123,381336927,"""map""",,,1294.57406982,-1777.55762433,-5.6022622412,,0.00832528103678,0.0189408391758,0.584645910235,0.811024718459
1501822123386342048,,2791,,1501822123,386342048,"""map""",,,1294.57403602,-1777.55711432,-5.60226808146,,0.00832986040197,0.0189435838549,0.584647227414,0.811023657814
1501822123391346931,,2813,,1501822123,391346931,"""map""",,,1294.57400356,-1777.55660016,-5.60227260361,,0.00833623792949,0.0189437518948,0.584648125979,0.811022940607
1501822123396352052,,2877,,1501822123,396352052,"""map""",,,1294.57397262,-1777.55607985,-5.60227637132,,0.00834243207276,0.0189429070435,0.584648843901,0.811022379115
1501822123401329994,,2897,,1501822123,401329994,"""map""",,,1294.57394464,-1777.5555559,-5.60228087646,,0.00834899298043,0.0189440879744,0.584649923048,0.811021506082
1501822123416344881,,2980,,1501822123,416344881,"""map""",,,1294.57386874,-1777.55393795,-5.60229921359,,0.00835672188381,0.0189585652721,0.58465024596,0.811020855405
1501822123421331882,,2999,,1501822123,421331882,"""map""",,,1294.57384774,-1777.55338982,-5.60230629588,,0.00835797762761,0.0189667445331,0.584649045032,0.81102151695
1501822123426337003,,3062,,1501822123,426337003,"""map""",,,1294.57382647,-1777.55283305,-5.60231318494,,0.00835779439742,0.0189732709642,0.584649674231,0.811020912605
1501822123431341886,,3085,,1501822123,431341886,"""map""",,,1294.5738103,-1777.55226972,-5.60232053726,,0.00835940952055,0.0189813910205,0.584649053523,0.811021153412
1501822123436347007,,3145,,1501822123,436347007,"""map""",,,1294.57379508,-1777.55170009,-5.6023282275,,0.00836125199153,0.0189866916836,0.584649046262,0.811021015578
1501822123441340923,,3168,,1501822123,441340923,"""map""",,,1294.57377994,-1777.55112447,-5.60233638276,,0.00836189095015,0.0189890707957,0.584649105229,0.811020910781
1501822123446346044,,3232,,1501822123,446346044,"""map""",,,1294.57377028,-1777.55054364,-5.60234553618,,0.0083671828938,0.0189923748588,0.58464823132,0.811021408819
1501822123451340913,,3255,,1501822123,451340913,"""map""",,,1294.5737617,-1777.54995909,-5.60235532915,,0.00837243815822,0.0189944676682,0.584647371325,0.811021925523
1501822123456346035,,3319,,1501822123,456346035,"""map""",,,1294.57375453,-1777.54936965,-5.6023649534,,0.00837911672438,0.0189954507768,0.584647858533,0.811021482308
1501822123461350917,,3341,,1501822123,461350917,"""map""",,,1294.5737475,-1777.54877577,-5.6023752063,,0.00838459206237,0.0189947243434,0.584647415438,0.811021762153
1501822123466356039,,3405,,1501822123,466356039,"""map""",,,1294.57374125,-1777.54817626,-5.60238690365,,0.00838900303472,0.0189947095183,0.584647782851,0.811021452026
1501822123471330881,,3427,,1501822123,471330881,"""map""",,,1294.57373609,-1777.54757342,-5.60239955592,,0.00839099998502,0.0189951071579,0.584646839456,0.811022102127
1501822123476336002,,3491,,1501822123,476336002,"""map""",,,1294.57373462,-1777.54695956,-5.60241352268,,0.00839250526382,0.0189987203546,0.584645679627,0.81102283801
1501822123481334924,,3513,,1501822123,481334924,"""map""",,,1294.57373451,-1777.54633883,-5.60242764491,,0.00839163290889,0.0190027452601,0.584644191583,0.811023825432
1501822123486340045,,3578,,1501822123,486340045,"""map""",,,1294.57373705,-1777.54571201,-5.60244192418,,0.00839148714218,0.0190069904485,0.584642483182,0.811024958998
1501822123491341114,,3599,,1501822123,491341114,"""map""",,,1294.57373949,-1777.54507994,-5.60245696579,,0.00838974137526,0.0190089083111,0.58464143651,0.811025686622
1501822123496345996,,3666,,1501822123,496345996,"""map""",,,1294.57374521,-1777.5444434,-5.6024732158,,0.00839058594961,0.0190105536,0.584641103779,0.811025879175
1501822123501351118,,3686,,1501822123,501351118,"""map""",,,1294.57375321,-1777.54380294,-5.60249059658,,0.00839349276969,0.0190100992459,0.584640536193,0.8110262689
1501822123506356000,,3753,,1501822123,506356000,"""map""",,,1294.57376508,-1777.54315657,-5.60250898987,,0.00839783820386,0.0190100857638,0.584639134865,0.811027234399
1501822123511360883,,3773,,1501822123,511360883,"""map""",,,1294.57377923,-1777.54250197,-5.60252830099,,0.00840100898641,0.019010981496,0.584639332132,0.811027038363
1501822123516366004,,3839,,1501822123,516366004,"""map""",,,1294.57379775,-1777.54184243,-5.6025475476,,0.00840018600066,0.0190096501188,0.584637419398,0.81102845691
1501822123521370887,,3860,,1501822123,521370887,"""map""",,,1294.57381854,-1777.54117484,-5.60256653745,,0.00840051681839,0.0190103411264,0.58463711148,0.811028659251
1501822123526376008,,3925,,1501822123,526376008,"""map""",,,1294.57384022,-1777.54050169,-5.60258485221,,0.00839944622779,0.0190091831861,0.58463588057,0.811029584792
1501822123536345005,,4002,,1501822123,536345005,"""map""",,,1294.57388978,-1777.53914106,-5.60262267555,,0.00839394380317,0.0190074547496,0.584633904427,0.811031106781
1501822123541349887,,4025,,1501822123,541349887,"""map""",,,1294.57392063,-1777.53844789,-5.60264399083,,0.00839166955986,0.0190092917839,0.584633070457,0.811031688429
1501822123546355009,,4089,,1501822123,546355009,"""map""",,,1294.573951,-1777.5377478,-5.60266606918,,0.00838639370442,0.0190078256706,0.58463255617,0.811032148087
1501822123551359891,,4111,,1501822123,551359891,"""map""",,,1294.57398675,-1777.53704161,-5.60268914496,,0.00838328272898,0.0190087669231,0.584632149651,0.811032451228
1501822123556365013,,4164,,1501822123,556365013,"""map""",,,1294.57402349,-1777.53633084,-5.60271193411,,0.00838066336912,0.0190064926113,0.584631959601,0.811032668598
1501822123561369895,,4186,,1501822123,561369895,"""map""",,,1294.57406429,-1777.53561502,-5.6027347539,,0.00837991549814,0.0190040641611,0.584631322922,0.811033192182
1501822123566375017,,4250,,1501822123,566375017,"""map""",,,1294.57410562,-1777.53489447,-5.60275747593,,0.00837919678475,0.0189986768515,0.584631306984,0.811033337313
1501822123571379899,,4272,,1501822123,571379899,"""map""",,,1294.57414999,-1777.53416779,-5.60278111423,,0.00837836095615,0.0189938261932,0.584630305108,0.81103418176
1501822123586390972,,4329,,1501822123,586390972,"""map""",,,1294.57430615,-1777.53193854,-5.60286041484,,0.00837213115825,0.0189936956003,0.584632763825,0.811032476791
1501822123591396093,,4351,,1501822123,591396093,"""map""",,,1294.57436369,-1777.53117955,-5.60288734771,,0.00836711181784,0.0189944528663,0.5846333987,0.811032053205
1501822123596400976,,4416,,1501822123,596400976,"""map""",,,1294.57442369,-1777.53041516,-5.60291396754,,0.00836320795501,0.0189936243196,0.584634017764,0.81103166662
1501822123601402997,,4437,,1501822123,601402997,"""map""",,,1294.57448503,-1777.52964628,-5.60294073302,,0.008360059669,0.0189909303334,0.584635618182,0.811030608498
1501822123606408119,,4503,,1501822123,606408119,"""map""",,,1294.57455125,-1777.52887182,-5.6029694217,,0.00835981758444,0.0189899905653,0.584636918202,0.811029695871
1501822123611346006,,4524,,1501822123,611346006,"""map""",,,1294.57461063,-1777.52809719,-5.60299876291,,0.00835939178403,0.0189868259341,0.584639034149,0.811028249052
1501822123616350889,,4590,,1501822123,616350889,"""map""",,,1294.57467336,-1777.52730523,-5.60303024535,,0.00835906866084,0.0189852100892,0.584641327361,0.811026637115
1501822123621347904,,4611,,1501822123,621347904,"""map""",,,1294.57473989,-1777.52651088,-5.60306258079,,0.00836201879947,0.0189835428448,0.584642935181,0.811025486705
1501822123626353025,,4677,,1501822123,626353025,"""map""",,,1294.57480663,-1777.5257072,-5.60309450097,,0.00836211398734,0.0189813323175,0.584645222456,0.811023888632
1501822123631357908,,4697,,1501822123,631357908,"""map""",,,1294.57487551,-1777.52489668,-5.60312633056,,0.00836192373237,0.0189789840882,0.584645158795,0.811023991441
1501822123636363029,,4763,,1501822123,636363029,"""map""",,,1294.5749459,-1777.52407862,-5.60315837647,,0.0083612268472,0.0189765545963,0.584645897725,0.8110235228
1501822123641346931,,4783,,1501822123,641346931,"""map""",,,1294.57501597,-1777.52325484,-5.60319063941,,0.00835790972462,0.0189728473963,0.584647710479,0.811022336954
1501822123646352052,,4849,,1501822123,646352052,"""map""",,,1294.5750923,-1777.52241917,-5.60322446574,,0.00835707330285,0.0189735743969,0.584648616701,0.81102167529
1501822123651346921,,4870,,1501822123,651346921,"""map""",,,1294.57516829,-1777.52157795,-5.60325835267,,0.00835528294418,0.0189718571205,0.584649380039,0.811021183635
1501822123656352043,,4936,,1501822123,656352043,"""map""",,,1294.57524657,-1777.52072805,-5.60329249771,,0.0083551433998,0.0189703810289,0.584651272914,0.811019855061
1501822123661343097,,4958,,1501822123,661343097,"""map""",,,1294.57532538,-1777.51987482,-5.60332602598,,0.0083565522317,0.0189667241916,0.584653537122,0.811018293838
1501822123666347980,,5023,,1501822123,666347980,"""map""",,,1294.57540523,-1777.51901185,-5.6033600358,,0.00835742533811,0.0189629866691,0.584655817834,0.811016728096
1501822123671353101,,5045,,1501822123,671353101,"""map""",,,1294.57548574,-1777.51814298,-5.60339365904,,0.00835834305554,0.0189578408256,0.584656538358,0.81101631952
1501822123676357984,,5108,,1501822123,676357984,"""map""",,,1294.57556774,-1777.51726711,-5.60342758629,,0.0083592535028,0.0189526951266,0.584657062351,0.811016052659
1501822123681356906,,5131,,1501822123,681356906,"""map""",,,1294.5756521,-1777.51638303,-5.60346239754,,0.00835888694933,0.0189502070096,0.584657595473,0.811015730254
1501822123686362028,,5194,,1501822123,686362028,"""map""",,,1294.57573698,-1777.51548994,-5.60349744782,,0.00835688414952,0.018947477408,0.584657392058,0.81101596131
1501822123691345930,,5217,,1501822123,691345930,"""map""",,,1294.57582135,-1777.51459035,-5.60353185315,,0.00835132917484,0.0189451955913,0.584657877848,0.811015721632
1501822123696351051,,5281,,1501822123,696351051,"""map""",,,1294.57591097,-1777.51367988,-5.60356608948,,0.00834901795382,0.0189446093006,0.58465805416,0.811015632022
1501822123701350927,,5303,,1501822123,701350927,"""map""",,,1294.5759987,-1777.51276127,-5.6035997789,,0.00834391787065,0.0189408589513,0.584658935667,0.811015136629
1501822123706356048,,5368,,1501822123,706356048,"""map""",,,1294.5760893,-1777.51183299,-5.60363371269,,0.0083406594332,0.0189374894173,0.58466074296,0.811013945956
1501822123711355924,,5390,,1501822123,711355924,"""map""",,,1294.5761816,-1777.51089729,-5.60366765866,,0.00833718189645,0.0189334464901,0.584659809619,0.811014748952
1501822123716361045,,5456,,1501822123,716361045,"""map""",,,1294.57627772,-1777.50995333,-5.6037021003,,0.00833595740038,0.0189304018154,0.584658603171,0.811015702339
1501822123721354007,,5476,,1501822123,721354007,"""map""",,,1294.57637302,-1777.50900604,-5.60373581749,,0.00833527543828,0.0189241406235,0.584658988806,0.811015577467
1501822123726358890,,5542,,1501822123,726358890,"""map""",,,1294.57647199,-1777.50805037,-5.60377037532,,0.00833594453233,0.0189200682683,0.584657344515,0.811016850966
1501822123731359004,,5562,,1501822123,731359004,"""map""",,,1294.57656959,-1777.50708911,-5.6038049858,,0.00833531399854,0.0189141448941,0.584657528299,0.811016863121
1501822123736363887,,5628,,1501822123,736363887,"""map""",,,1294.57667,-1777.50612033,-5.60384040435,,0.00833535874847,0.0189101890983,0.584657278056,0.811017135305
1501822123741369009,,5649,,1501822123,741369009,"""map""",,,1294.57677165,-1777.50514308,-5.60387700984,,0.00833337837549,0.0189077978619,0.584656086674,0.811018070267
1501822123746373891,,5715,,1501822123,746373891,"""map""",,,1294.57687622,-1777.50415664,-5.60391435059,,0.00833037837705,0.0189067950179,0.584653729955,0.8110198234
1501822123751353025,,5735,,1501822123,751353025,"""map""",,,1294.57698299,-1777.50316407,-5.60395227558,,0.00832541831637,0.0189082286602,0.584652781657,0.811020524524
1501822123756357908,,5802,,1501822123,756357908,"""map""",,,1294.57709396,-1777.5021592,-5.60399020579,,0.00832240327657,0.0189089724128,0.584651193752,0.811021682824
1501822123761363029,,5810,,1501822123,761363029,"""map""",,,1294.57720835,-1777.50114553,-5.60402828798,,0.00831949864503,0.0189095184854,0.584648817805,0.811023412666
1501822123766367912,,5876,,1501822123,766367912,"""map""",,,1294.57732474,-1777.50012555,-5.60406609004,,0.008319073975,0.0189070314727,0.584647778799,0.811024223999
1501822123771373033,,5898,,1501822123,771373033,"""map""",,,1294.57744479,-1777.49909899,-5.60410475287,,0.00832109286449,0.0189044703293,0.584647259497,0.811024637343
1501822123776377916,,5961,,1501822123,776377916,"""map""",,,1294.57756654,-1777.49806763,-5.60414468193,,0.00832590000468,0.018899691037,0.584647862759,0.811024264519
1501822123781363010,,5983,,1501822123,781363010,"""map""",,,1294.57768962,-1777.4970343,-5.60418636331,,0.00833105923969,0.0188948527008,0.584648849807,0.811023612734
1501822123786367893,,6047,,1501822123,786367893,"""map""",,,1294.57781494,-1777.4959911,-5.6042287968,,0.00833621122189,0.0188900145044,0.584649640308,0.811023102644
1501822123791357040,,6070,,1501822123,791357040,"""map""",,,1294.57794347,-1777.49494511,-5.60427152315,,0.00834140755072,0.0188875993813,0.584649616932,0.811023122315
1501822123796361923,,6133,,1501822123,796361923,"""map""",,,1294.57807398,-1777.49388715,-5.6043139883,,0.00834381549873,0.0188853173124,0.584648886534,0.811023677218
1501822123801362037,,6156,,1501822123,801362037,"""map""",,,1294.57820761,-1777.49281935,-5.60435663033,,0.00834358121614,0.0188847162472,0.584648805584,0.811023751979
1501822123806366920,,6221,,1501822123,806366920,"""map""",,,1294.57834382,-1777.491738,-5.60439950372,,0.00833923067096,0.0188848217092,0.584647066634,0.811025047836
1501822123811364889,,6243,,1501822123,811364889,"""map""",,,1294.57848372,-1777.49064697,-5.60444264982,,0.0083346299858,0.0188861962186,0.584646698634,0.811025328403
1501822123816370010,,6307,,1501822123,816370010,"""map""",,,1294.57862905,-1777.48954627,-5.60448652186,,0.00833179111605,0.0188879530522,0.58464509484,0.81102647279
1501822123821360111,,6329,,1501822123,821360111,"""map""",,,1294.57877695,-1777.48844351,-5.60453140468,,0.0083320265943,0.0188870951247,0.584644806192,0.811026698428
1501822123826364994,,6393,,1501822123,826364994,"""map""",,,1294.57892863,-1777.48733232,-5.60457849097,,0.00833581360012,0.0188854505501,0.584645405966,0.811026265452
1501822123831356048,,6415,,1501822123,831356048,"""map""",,,1294.57908204,-1777.48622021,-5.60462671976,,0.00834219137364,0.0188817871397,0.58464555809,0.81102617551
1501822123836360931,,6439,,1501822123,836360931,"""map""",,,1294.57923812,-1777.48510041,-5.60467554242,,0.00835113021206,0.0188757666535,0.584646053877,0.81102586626
1501822123841363906,,6460,,1501822123,841363906,"""map""",,,1294.57939718,-1777.48397339,-5.60472457139,,0.00836064102539,0.0188698261316,0.584647515713,0.811024852711
1501822123846369028,,6485,,1501822123,846369028,"""map""",,,1294.57956059,-1777.48283345,-5.60477381514,,0.00836785459267,0.0188675928187,0.584649398806,0.811023472796
1501822123851373910,,6505,,1501822123,851373910,"""map""",,,1294.57972582,-1777.48167874,-5.60482261051,,0.00836874221575,0.0188680252397,0.584651241498,0.811022125217
1501822123856379032,,6567,,1501822123,856379032,"""map""",,,1294.57989567,-1777.48051278,-5.6048704638,,0.00836775914948,0.0188710357542,0.584651537728,0.81102185177
1501822123861365079,,6588,,1501822123,861365079,"""map""",,,1294.58006605,-1777.47934117,-5.60491788885,,0.00836406048458,0.0188733047316,0.584652511147,0.811021135403
1501822123866369962,,6654,,1501822123,866369962,"""map""",,,1294.58023586,-1777.478158,-5.6049662911,,0.00835763214567,0.0188710010498,0.584653022229,0.811020886848
1501822123871364116,,6674,,1501822123,871364116,"""map""",,,1294.58041046,-1777.47697398,-5.6050171983,,0.0083573387291,0.0188688503392,0.584653942987,0.81102027615
1501822123876368999,,6740,,1501822123,876368999,"""map""",,,1294.58058795,-1777.4757826,-5.60507202852,,0.00836030374134,0.0188654365808,0.584654782072,0.811019720121
1501822123881359100,,6760,,1501822123,881359100,"""map""",,,1294.58076772,-1777.4745882,-5.60512938852,,0.00836610813408,0.0188610156077,0.584657122794,0.811018075687
1501822123886363983,,6826,,1501822123,886363983,"""map""",,,1294.5809526,-1777.47338255,-5.60518818252,,0.00837495122302,0.0188572777196,0.584658384051,0.811017162104
1501822123891369104,,6848,,1501822123,891369104,"""map""",,,1294.58113765,-1777.47216709,-5.60524573992,,0.00838171751142,0.0188505963377,0.584659736806,0.811016272332
1501822123896373987,,6904,,1501822123,896373987,"""map""",,,1294.58132684,-1777.47094102,-5.60530221281,,0.00838803619568,0.0188453833557,0.584660890387,0.811015496539
1501822123901367902,,6926,,1501822123,901367902,"""map""",,,1294.58151522,-1777.46970666,-5.60535788167,,0.00838962887391,0.0188380348357,0.58466200744,0.811014845503
1501822123906373023,,6991,,1501822123,906373023,"""map""",,,1294.58170649,-1777.46845971,-5.6054146598,,0.00838908602558,0.0188324485448,0.584662971469,0.811014285886
1501822123911370992,,7014,,1501822123,911370992,"""map""",,,1294.58190121,-1777.46720745,-5.60547389294,,0.00838893269082,0.0188283533393,0.584662728113,0.811014557991
1501822123916376113,,7077,,1501822123,916376113,"""map""",,,1294.58209738,-1777.46594536,-5.60553687135,,0.00838643073879,0.0188246691891,0.584662942316,0.81101451497
1501822123921372890,,7100,,1501822123,921372890,"""map""",,,1294.58229697,-1777.4646803,-5.60560251715,,0.00838765636216,0.0188212114397,0.584664029154,0.811013799041
1501822123926378011,,7164,,1501822123,926378011,"""map""",,,1294.58249994,-1777.46340423,-5.60567037126,,0.00838885270894,0.0188186274232,0.584664910933,0.81101321095
1501822123931365966,,7186,,1501822123,931365966,"""map""",,,1294.58270638,-1777.46212515,-5.60573783674,,0.00839329303321,0.0188147807062,0.584665318008,0.811012960795
1501822123936371088,,7250,,1501822123,936371088,"""map""",,,1294.58291693,-1777.46083262,-5.6058042927,,0.00839911331371,0.0188089520779,0.584665312204,0.811013039922
1501822123941358089,,7272,,1501822123,941358089,"""map""",,,1294.58312801,-1777.4595337,-5.60586973492,,0.00840331179826,0.0188007965319,0.584665378,0.811013138098
1501822123946362972,,7336,,1501822123,946362972,"""map""",,,1294.58334306,-1777.45822026,-5.60593544507,,0.0084078921069,0.0187929202121,0.584665036257,0.811013519541
1501822123951363086,,7358,,1501822123,951363086,"""map""",,,1294.58356204,-1777.45689995,-5.60600238582,,0.0084140644296,0.0187870325031,0.584665414182,0.811013319489
1501822123956367969,,7424,,1501822123,956367969,"""map""",,,1294.58378258,-1777.45557185,-5.60607062498,,0.00841938584348,0.0187793761816,0.584665245167,0.811013563429
1501822123961370944,,7445,,1501822123,961370944,"""map""",,,1294.58400668,-1777.45423655,-5.606140864,,0.00842509558684,0.0187737451371,0.584666027254,0.811013070692
1501822123966376066,,7511,,1501822123,966376066,"""map""",,,1294.58423192,-1777.45289097,-5.60621269548,,0.00842842056247,0.0187685259284,0.58466628427,0.811012971659
1501822123971380949,,7531,,1501822123,971380949,"""map""",,,1294.58446178,-1777.45153567,-5.60628458312,,0.00843251697856,0.0187650771056,0.584664926532,0.811013987686
1501822123976386070,,7597,,1501822123,976386070,"""map""",,,1294.58469418,-1777.45016955,-5.60635523329,,0.00843611415099,0.018760673683,0.584663986718,0.811014729666
1501822123981373071,,7618,,1501822123,981373071,"""map""",,,1294.58492649,-1777.44879654,-5.60642443371,,0.0084375163789,0.018754397572,0.58466431066,0.811014626705
1501822123986377954,,7684,,1501822123,986377954,"""map""",,,1294.58516423,-1777.44740872,-5.60649392629,,0.00844023303052,0.0187499723911,0.584663199959,0.811015501464
1501822123991383075,,7705,,1501822123,991383075,"""map""",,,1294.58540253,-1777.44601365,-5.60656426344,,0.0084432202093,0.018742726761,0.584663881265,0.811015146696
1501822123996388912,,7770,,1501822123,996388912,"""map""",,,1294.58564244,-1777.44461141,-5.60663623067,,0.00844548873378,0.0187335144821,0.584663817022,0.811015382234
1501822124001374959,,7791,,1501822124,1374959,"""map""",,,1294.58588662,-1777.44320818,-5.60671012374,,0.00845042927431,0.0187259179173,0.584662477831,0.811016471633
1501822124006380081,,7857,,1501822124,6380081,"""map""",,,1294.58613414,-1777.44179049,-5.6067853457,,0.0084556328712,0.0187184593033,0.584662900021,0.81101628522
1501822124011374950,,7879,,1501822124,11374950,"""map""",,,1294.5863864,-1777.44036523,-5.60686090446,,0.00846173263396,0.01871344632,0.584661893624,0.8110170628
1501822124016380071,,7942,,1501822124,16380071,"""map""",,,1294.58663926,-1777.43892401,-5.60693586616,,0.00846331855629,0.0187073099967,0.584661817054,0.811017243017
1501822124021384954,,7965,,1501822124,21384954,"""map""",,,1294.58689367,-1777.43747202,-5.60700951843,,0.00846364249955,0.0186999995943,0.584661395898,0.811017711839
1501822124026390075,,8028,,1501822124,26390075,"""map""",,,1294.58714932,-1777.43601031,-5.60708249894,,0.00846245440762,0.0186919108777,0.584661420199,0.811017893183
1501822124031367063,,8051,,1501822124,31367063,"""map""",,,1294.58740832,-1777.4345523,-5.60715568488,,0.00846554579465,0.0186827217046,0.584659954383,0.811019129358
1501822124036371946,,8114,,1501822124,36371946,"""map""",,,1294.58767096,-1777.43307683,-5.60723156356,,0.00846654576202,0.0186735476262,0.584658352415,0.811020485052
1501822124041377067,,8137,,1501822124,41377067,"""map""",,,1294.58793736,-1777.43159045,-5.60731039297,,0.00846642977114,0.0186668324055,0.584657347557,0.811021365244
1501822124046381950,,8200,,1501822124,46381950,"""map""",,,1294.58820877,-1777.43009461,-5.60739050269,,0.00846800914991,0.0186619083581,0.58465607816,0.811022377169
1501822124051366090,,8223,,1501822124,51366090,"""map""",,,1294.58848326,-1777.42859557,-5.60746961045,,0.00847133403373,0.0186566890953,0.584656334891,0.811022277452
1501822124056370973,,8287,,1501822124,56370973,"""map""",,,1294.58876074,-1777.42707962,-5.60754736531,,0.00847336027851,0.0186490845051,0.584656260527,0.811022484793
1501822124061376094,,8310,,1501822124,61376094,"""map""",,,1294.58903907,-1777.42555287,-5.60762328511,,0.00847315586431,0.0186387349883,0.584655885815,0.811022994969
1501822124066380977,,8368,,1501822124,66380977,"""map""",,,1294.58932292,-1777.42401852,-5.60769897754,,0.00847633521508,0.0186290097317,0.584654619453,0.811024098095
1501822124071386098,,8390,,1501822124,71386098,"""map""",,,1294.58960969,-1777.42247293,-5.60777615236,,0.0084769013434,0.0186200916183,0.584654207462,0.811024593973
1501822124076390981,,8454,,1501822124,76390981,"""map""",,,1294.58989992,-1777.42091856,-5.60785485199,,0.00847712316795,0.0186103593838,0.584653026911,0.811025666074
1501822124081368923,,8476,,1501822124,81368923,"""map""",,,1294.59019455,-1777.41936345,-5.60793553256,,0.00847885614067,0.018603151578,0.584652563355,0.81102614749
1501822124086374044,,8543,,1501822124,86374044,"""map""",,,1294.59049287,-1777.41779037,-5.6080171406,,0.00847900394518,0.0185948281373,0.584652157239,0.811026629584
1501822124091378927,,8563,,1501822124,91378927,"""map""",,,1294.5907963,-1777.4162079,-5.60809896267,,0.00847990843118,0.0185870633829,0.584650739759,0.811027819946
1501822124096384048,,8628,,1501822124,96384048,"""map""",,,1294.59110239,-1777.4146169,-5.60818020279,,0.0084820450538,0.0185771760473,0.584650291979,0.811028346934
1501822124101388931,,8649,,1501822124,101388931,"""map""",,,1294.59140989,-1777.41301416,-5.60826114386,,0.00848199439545,0.0185666279539,0.584650307792,0.811028577608
1501822124106394052,,8716,,1501822124,106394052,"""map""",,,1294.5917227,-1777.41140286,-5.60834279113,,0.0084848649091,0.0185569607524,0.584649836384,0.811029108659
1501822124111378908,,8736,,1501822124,111378908,"""map""",,,1294.59203675,-1777.40978885,-5.60842518022,,0.0084867380219,0.0185457233989,0.584648623024,0.81103022078
1501822124116384029,,8802,,1501822124,116384029,"""map""",,,1294.59235577,-1777.40815708,-5.6085098772,,0.00848734766319,0.0185359311665,0.584648808454,0.811030304587
1501822124121381044,,8823,,1501822124,121381044,"""map""",,,1294.59267784,-1777.40651872,-5.60859588248,,0.00848814112243,0.0185262787391,0.584648593622,0.811030671696
1501822124126385927,,8888,,1501822124,126385927,"""map""",,,1294.59300517,-1777.40486767,-5.6086826931,,0.00848927164076,0.0185174405946,0.584648950815,0.811030604214
1501822124131370067,,8905,,1501822124,131370067,"""map""",,,1294.5933342,-1777.4032151,-5.60876919155,,0.00849140741354,0.0185063411047,0.58464949874,0.811030440219
1501822124136374950,,8970,,1501822124,136374950,"""map""",,,1294.5936689,-1777.40154385,-5.6088563827,,0.00849317642147,0.0184961741492,0.584649850941,0.811030399733
1501822124141380071,,8993,,1501822124,141380071,"""map""",,,1294.59400486,-1777.39986139,-5.60894375814,,0.00849322851776,0.0184842165573,0.584649877603,0.811030652581
1501822124146384954,,9056,,1501822124,146384954,"""map""",,,1294.59434344,-1777.39816974,-5.60903151484,,0.00849384608203,0.0184705928269,0.584649511398,0.811031220485
1501822124151381969,,9079,,1501822124,151381969,"""map""",,,1294.59468573,-1777.39647036,-5.60912113575,,0.00849568113666,0.0184578051058,0.58464988826,0.811031220725
1501822124156387090,,9143,,1501822124,156387090,"""map""",,,1294.59503284,-1777.39475602,-5.60921310338,,0.0084966646893,0.0184470801496,0.584650465326,0.811031038442
1501822124161375999,,9165,,1501822124,161375999,"""map""",,,1294.59538227,-1777.39303772,-5.60930521729,,0.00849948990646,0.0184358627483,0.584651387584,0.811030599072
1501822124166380882,,9214,,1501822124,166380882,"""map""",,,1294.59573458,-1777.3913033,-5.60939673961,,0.00850084854985,0.0184224589735,0.584651194031,0.811031028936
1501822124171377897,,9237,,1501822124,171377897,"""map""",,,1294.59608981,-1777.38956131,-5.60948781769,,0.00850237579072,0.0184079832027,0.584651203136,0.81103133505
1501822124176383018,,9301,,1501822124,176383018,"""map""",,,1294.59644706,-1777.38780564,-5.60957871934,,0.00850247217318,0.0183913201614,0.584651078915,0.811031801616
1501822124181380987,,9323,,1501822124,181380987,"""map""",,,1294.59680811,-1777.38604042,-5.60967052916,,0.00850261175042,0.0183767412528,0.58465171904,0.811031669171
1501822124196393013,,9368,,1501822124,196393013,"""map""",,,1294.59791584,-1777.38067679,-5.60995231737,,0.00850830714975,0.0183343472421,0.584653472843,0.811031304645
1501822124201384067,,9383,,1501822124,201384067,"""map""",,,1294.59829139,-1777.3788724,-5.61004520964,,0.00851089167609,0.0183200331868,0.58465305569,0.811031901703
1501822124206388950,,9449,,1501822124,206388950,"""map""",,,1294.59866912,-1777.3770522,-5.61013738457,,0.00851184009722,0.0183033925851,0.58465231558,0.811032800992
1501822124211394071,,9470,,1501822124,211394071,"""map""",,,1294.59904965,-1777.37521956,-5.6102303693,,0.00851113612865,0.0182870449297,0.584652603544,0.811032969564
1501822124216398954,,9535,,1501822124,216398954,"""map""",,,1294.59943589,-1777.37337603,-5.61032332153,,0.00851326495869,0.0182729873152,0.584652786768,0.811033131986
1501822124221390008,,9556,,1501822124,221390008,"""map""",,,1294.59982642,-1777.37152604,-5.61041601678,,0.00851658385833,0.0182609786091,0.584651931381,0.81103398424
1501822124226394891,,9622,,1501822124,226394891,"""map""",,,1294.6002204,-1777.36965893,-5.61050840457,,0.00851923986841,0.0182487479325,0.584653064441,0.811033414842
1501822124231400012,,9642,,1501822124,231400012,"""map""",,,1294.60061611,-1777.36778152,-5.6106002526,,0.00852124345751,0.0182348881718,0.584653642371,0.811033288913
1501822124236404895,,9703,,1501822124,236404895,"""map""",,,1294.60101478,-1777.36589254,-5.61069216697,,0.00852377495054,0.0182219823129,0.584654588889,0.811032870057
1501822124241390943,,9724,,1501822124,241390943,"""map""",,,1294.6014141,-1777.36399918,-5.61078301239,,0.008525743096,0.0182081234733,0.584654183983,0.811033452513
1501822124251394987,,9799,,1501822124,251394987,"""map""",,,1294.60222575,-1777.36016362,-5.61096416387,,0.0085285830989,0.0181816518771,0.58465555679,0.811033026898
1501822124256400108,,9864,,1501822124,256400108,"""map""",,,1294.60263676,-1777.35822596,-5.61105450126,,0.00852914980308,0.0181697754886,0.584654975226,0.811033706331
1501822124261399030,,9887,,1501822124,261399030,"""map""",,,1294.60305149,-1777.35628008,-5.61114451812,,0.00853147861476,0.0181591547525,0.584653740303,0.811034809932
1501822124266403913,,9950,,1501822124,266403913,"""map""",,,1294.6034707,-1777.35432134,-5.611235092,,0.00853626384463,0.0181493323875,0.584654000668,0.811034791755
1501822124271382093,,9973,,1501822124,271382093,"""map""",,,1294.60389085,-1777.3523605,-5.6113255521,,0.00853967255446,0.0181400850521,0.584651934006,0.811036452553
1501822124276386976,,10036,,1501822124,276386976,"""map""",,,1294.60431608,-1777.35037756,-5.61141577572,,0.0085438292911,0.0181310574708,0.584650237095,0.81103783389
1501822124281392097,,10059,,1501822124,281392097,"""map""",,,1294.60474215,-1777.34838414,-5.61150475306,,0.00854802163606,0.0181190706723,0.584649355494,0.811038693112
1501822124286396980,,10123,,1501822124,286396980,"""map""",,,1294.60517122,-1777.34637753,-5.61159450184,,0.00855034201825,0.018107237909,0.584648919363,0.811039247308
1501822124291395902,,10145,,1501822124,291395902,"""map""",,,1294.60560423,-1777.34436107,-5.61168509305,,0.00855297091583,0.0180962201535,0.584648269482,0.811039933971
1501822124301400899,,10215,,1501822124,301400899,"""map""",,,1294.60648153,-1777.34028687,-5.61186673321,,0.00855615351937,0.0180774969067,0.584645815681,0.811042086793
1501822124306406021,,10276,,1501822124,306406021,"""map""",,,1294.60692771,-1777.33823276,-5.6119567574,,0.00856116643017,0.0180690253972,0.584645858986,0.811042191455
1501822124316416025,,10358,,1501822124,316416025,"""map""",,,1294.60782331,-1777.33408824,-5.61213478608,,0.00856734859119,0.0180452643979,0.584644745902,0.811043457565
1501822124321417093,,10373,,1501822124,321417093,"""map""",,,1294.60827663,-1777.33199776,-5.6122239901,,0.00856940564235,0.0180350399449,0.584643710642,0.811044409529
1501822124326421976,,10439,,1501822124,326421976,"""map""",,,1294.60873676,-1777.32989462,-5.61231351962,,0.00857339959098,0.0180258719417,0.584643002919,0.811045081298
1501822124331394910,,10460,,1501822124,331394910,"""map""",,,1294.60919508,-1777.32779203,-5.61240166678,,0.0085738643791,0.0180145320698,0.584641827341,0.811046175755
1501822124336400032,,10526,,1501822124,336400032,"""map""",,,1294.60966087,-1777.3256652,-5.61248996144,,0.00857582839702,0.0180030979144,0.584639232686,0.811048279227
1501822124341404914,,10546,,1501822124,341404914,"""map""",,,1294.61013072,-1777.32352556,-5.61257860069,,0.00857817748784,0.0179933495978,0.584639167747,0.811048517523
1501822124346410036,,10612,,1501822124,346410036,"""map""",,,1294.61060414,-1777.32137324,-5.61266734004,,0.00857934009873,0.0179831038408,0.584637567748,0.811049885813
1501822124351414918,,10634,,1501822124,351414918,"""map""",,,1294.6110796,-1777.31920853,-5.61275537222,,0.0085804354002,0.0179713083293,0.58463677178,0.811050709443
1501822124356420040,,10699,,1501822124,356420040,"""map""",,,1294.61156011,-1777.31703027,-5.61284324973,,0.00858246342025,0.0179619576576,0.584635531581,0.811051789106
1501822124361407041,,10720,,1501822124,361407041,"""map""",,,1294.61204286,-1777.31484737,-5.61293092534,,0.00858413367978,0.0179517933664,0.584633129183,0.811053728199
1501822124366411924,,10785,,1501822124,366411924,"""map""",,,1294.61253127,-1777.31264383,-5.61301866442,,0.00858521741571,0.0179403375271,0.5846303627,0.81105596437
1501822124371398925,,10807,,1501822124,371398925,"""map""",,,1294.61302402,-1777.31043495,-5.61310591313,,0.00858721731723,0.0179309876412,0.584628336222,0.811057610696
1501822124376404047,,10869,,1501822124,376404047,"""map""",,,1294.61352313,-1777.30820537,-5.61319344656,,0.008589268922,0.0179219756371,0.584626108167,0.811059394187
1501822124381395101,,10888,,1501822124,381395101,"""map""",,,1294.61402694,-1777.3059705,-5.61328054533,,0.00859335916664,0.0179134835137,0.584624800452,0.811060481088
1501822124386399984,,10951,,1501822124,386399984,"""map""",,,1294.61453714,-1777.303716,-5.61336804781,,0.00859717054825,0.0179053878587,0.584623496749,0.811061559188
1501822124391405105,,10974,,1501822124,391405105,"""map""",,,1294.61504989,-1777.30144993,-5.61345473811,,0.0086014441917,0.0178949503103,0.584622202747,0.811062676966
1501822124396409988,,11036,,1501822124,396409988,"""map""",,,1294.61556581,-1777.29916988,-5.61354103853,,0.00860504171145,0.0178855033189,0.584621508443,0.811063347646
1501822124406388998,,11099,,1501822124,406388998,"""map""",,,1294.61661038,-1777.2945864,-5.6137120078,,0.00861548967332,0.0178695168766,0.584619014875,0.811065386483
1501822124411393880,,11119,,1501822124,411393880,"""map""",,,1294.61713887,-1777.29226897,-5.61379591952,,0.00862109870295,0.0178597175709,0.584617873023,0.811066365772
1501822124416399002,,11183,,1501822124,416399002,"""map""",,,1294.61767537,-1777.28993815,-5.61388000028,,0.00862931957563,0.0178538153159,0.584617208888,0.811066887004
1501822124446403026,,11253,,1501822124,446403026,"""map""",,,1294.62096607,-1777.27566221,-5.61436181049,,0.00866558597955,0.0178208367396,0.584611014074,0.811071690802
1501822124451400995,,11273,,1501822124,451400995,"""map""",,,1294.62152755,-1777.27323574,-5.61443730313,,0.0086749220835,0.0178163068219,0.584610501288,0.811072060129
1501822124456406116,,11340,,1501822124,456406116,"""map""",,,1294.62209596,-1777.27079287,-5.6145113699,,0.00868678630561,0.0178127183104,0.584607939993,0.811073858109
1501822124461410999,,11361,,1501822124,461410999,"""map""",,,1294.62266611,-1777.2683338,-5.61458450632,,0.00869602072202,0.017808724963,0.584606834566,0.811074643616
1501822124466415882,,11426,,1501822124,466415882,"""map""",,,1294.62324212,-1777.2658605,-5.61465591002,,0.00870741294002,0.0178071390991,0.584605644339,0.811075414104
1501822124471419095,,11447,,1501822124,471419095,"""map""",,,1294.62381936,-1777.26336992,-5.61472538827,,0.00871352219665,0.0178062963825,0.584604007248,0.811076546973
1501822124476423978,,11512,,1501822124,476423978,"""map""",,,1294.62440228,-1777.26086601,-5.61479274251,,0.00872234894931,0.0178053223802,0.584601113544,0.811078559183
1501822124481429100,,11534,,1501822124,481429100,"""map""",,,1294.62498678,-1777.25834563,-5.61485811696,,0.00872921824573,0.0178034863683,0.584601234875,0.811078438133
1501822124486433982,,11598,,1501822124,486433982,"""map""",,,1294.62557481,-1777.25580889,-5.61492204982,,0.00873501088285,0.0178027017561,0.584600196363,0.811079141519
1501822124491409063,,11621,,1501822124,491409063,"""map""",,,1294.62616606,-1777.25327241,-5.61498385767,,0.00874414430569,0.0178042886096,0.584598252815,0.811080409117
1501822124496413946,,11684,,1501822124,496413946,"""map""",,,1294.62676424,-1777.25070496,-5.61504367061,,0.00875371096744,0.0178044073904,0.584596114238,0.811081844724
1501822124506423950,,11753,,1501822124,506423950,"""map""",,,1294.62797227,-1777.24551767,-5.61515457595,,0.00877253452076,0.0178076610415,0.584592800417,0.811083958383
1501822124511429071,,11776,,1501822124,511429071,"""map""",,,1294.62858489,-1777.24290031,-5.61520488332,,0.00878547497125,0.0178118958025,0.584591902977,0.811084372165
1501822124516433954,,11834,,1501822124,516433954,"""map""",,,1294.62920114,-1777.24026652,-5.61525232787,,0.00879416390564,0.0178141505348,0.584589688887,0.811085824293
1501822124526398897,,11906,,1501822124,526398897,"""map""",,,1294.63043522,-1777.23497086,-5.61534051541,,0.0088132791218,0.0178208382792,0.58458751472,0.811087036925
1501822124536408901,,11963,,1501822124,536408901,"""map""",,,1294.63169184,-1777.22957606,-5.61542417052,,0.00882662199856,0.0178356558829,0.584583853524,0.81108920491
1501822124541414022,,11984,,1501822124,541414022,"""map""",,,1294.63232201,-1777.22685003,-5.61546266986,,0.00882839501294,0.0178409592207,0.584581887951,0.81109048564
1501822124546418905,,12050,,1501822124,546418905,"""map""",,,1294.63295759,-1777.22410674,-5.61549870801,,0.00883199624601,0.0178478556966,0.584579461343,0.811092043645
1501822124551424026,,12070,,1501822124,551424026,"""map""",,,1294.63359757,-1777.22134623,-5.61553312833,,0.00883616216137,0.0178539589499,0.584577222871,0.811093477282
1501822124556428909,,12137,,1501822124,556428909,"""map""",,,1294.63423985,-1777.21856909,-5.61556666082,,0.00883948372581,0.0178562083063,0.584575045417,0.811094960919
1501822124561434030,,12157,,1501822124,561434030,"""map""",,,1294.63488907,-1777.21577468,-5.61560007035,,0.00884391632918,0.0178601699742,0.584571245871,0.811097563782
1501822124566438913,,12223,,1501822124,566438913,"""map""",,,1294.63554633,-1777.21296535,-5.61563300888,,0.00885219995372,0.017865032144,0.584568507856,0.811099339665
1501822124571444988,,12243,,1501822124,571444988,"""map""",,,1294.63621039,-1777.21013696,-5.61566647913,,0.00885844744193,0.0178707804344,0.584567786986,0.811099664366
1501822124576450109,,12309,,1501822124,576450109,"""map""",,,1294.63687792,-1777.20729204,-5.61569897296,,0.00886105247718,0.0178733419466,0.584568381303,0.811099151138
1501822124581404924,,12329,,1501822124,581404924,"""map""",,,1294.63754692,-1777.20445822,-5.61573122392,,0.00886305867899,0.0178787834401,0.584567391321,0.811099722783
1501822124586410045,,12392,,1501822124,586410045,"""map""",,,1294.63823052,-1777.20157964,-5.61576369453,,0.00886630561515,0.0178853994869,0.584566157793,0.811100430448
1501822124591404914,,12413,,1501822124,591404914,"""map""",,,1294.63891835,-1777.19869005,-5.61579611649,,0.00886923777788,0.0178903279528,0.584564359183,0.811101585968
1501822124596410036,,12478,,1501822124,596410036,"""map""",,,1294.63961413,-1777.195775,-5.61582992953,,0.00887095724583,0.0178970389931,0.584563758685,0.811101851893
1501822124601408958,,12500,,1501822124,601408958,"""map""",,,1294.64031571,-1777.19284507,-5.61586451016,,0.00887235491548,0.017905020926,0.584562565001,0.811102520735
1501822124606414079,,12560,,1501822124,606414079,"""map""",,,1294.64102676,-1777.1898961,-5.61589962468,,0.00887677593462,0.0179133468988,0.584561478016,0.811103071916
1501822124611418962,,12581,,1501822124,611418962,"""map""",,,1294.64174439,-1777.18693178,-5.61593519268,,0.00888229563702,0.0179197476234,0.584561558329,0.811102812221
1501822124616424083,,12644,,1501822124,616424083,"""map""",,,1294.64246966,-1777.18395154,-5.61597172783,,0.00889005304149,0.0179259343803,0.58456196991,0.811102293899
1501822124621403932,,12667,,1501822124,621403932,"""map""",,,1294.64320057,-1777.18097096,-5.61600902679,,0.00890172290318,0.017933699086,0.584561860528,0.811102073097
1501822124626409053,,12730,,1501822124,626409053,"""map""",,,1294.64394374,-1777.17795752,-5.61604743959,,0.00891422927913,0.0179432325218,0.584561906817,0.811101691541
1501822124631407022,,12753,,1501822124,631407022,"""map""",,,1294.64469196,-1777.17493167,-5.61608590347,,0.00892690229964,0.0179504811634,0.584563150448,0.811100495487
1501822124636411905,,12817,,1501822124,636411905,"""map""",,,1294.6454477,-1777.17188319,-5.61612392204,,0.0089386213117,0.0179582439121,0.584564416471,0.81109928216
1501822124656407117,,12884,,1501822124,656407117,"""map""",,,1294.64854134,-1777.15953858,-5.61627340854,,0.00899418687175,0.0179971765555,0.584569547254,0.811094107155
1501822124661412000,,12905,,1501822124,661412000,"""map""",,,1294.64933051,-1777.15640477,-5.61630945222,,0.0090067134159,0.0180075819067,0.584570764088,0.811092860208
1501822124666416883,,12970,,1501822124,666416883,"""map""",,,1294.65012532,-1777.15325255,-5.61634391824,,0.00901704526084,0.0180173267519,0.584572247095,0.811091460168
1501822124671401023,,12992,,1501822124,671401023,"""map""",,,1294.65092139,-1777.15009543,-5.61637479318,,0.00902636979055,0.0180260349079,0.58457494934,0.811089215388
1501822124676405906,,13041,,1501822124,676405906,"""map""",,,1294.65172939,-1777.14690826,-5.61640190282,,0.009039468845,0.0180377322052,0.584576136887,0.811087953555
1501822124681411027,,13062,,1501822124,681411027,"""map""",,,1294.65254527,-1777.14370279,-5.61642544893,,0.00905355948461,0.0180522121719,0.584576875637,0.811086941805
1501822124686415910,,13128,,1501822124,686415910,"""map""",,,1294.65336535,-1777.14048095,-5.61644509734,,0.00906772064551,0.0180637308483,0.584579410909,0.8110846999
1501822124691409111,,13148,,1501822124,691409111,"""map""",,,1294.65418454,-1777.13724858,-5.61646110278,,0.00907698805296,0.0180703559607,0.584580953662,0.811083336741
1501822124696413993,,13213,,1501822124,696413993,"""map""",,,1294.65501188,-1777.13398818,-5.6164761666,,0.00908249187789,0.0180785027427,0.584581803824,0.811082480835
1501822124701416015,,13235,,1501822124,701416015,"""map""",,,1294.65584451,-1777.1307098,-5.616490436,,0.00908288809717,0.0180863205648,0.584582608135,0.811081722404
1501822124711419105,,13308,,1501822124,711419105,"""map""",,,1294.65752971,-1777.12409366,-5.6165152912,,0.00907024224869,0.0181025600037,0.584585190068,0.811079640714
1501822124721429109,,13373,,1501822124,721429109,"""map""",,,1294.6592455,-1777.11739804,-5.61652953874,,0.00906032525505,0.0181212859323,0.584588652669,0.811076837712
1501822124726433992,,13436,,1501822124,726433992,"""map""",,,1294.66011141,-1777.11402207,-5.61653077479,,0.00905812752323,0.0181286967787,0.584591896436,0.811074358675
1501822124731416940,,13459,,1501822124,731416940,"""map""",,,1294.66097732,-1777.11064208,-5.61652775161,,0.00905685484163,0.0181335093265,0.584594744729,0.811072212356
1501822124736422061,,13522,,1501822124,736422061,"""map""",,,1294.66185404,-1777.1072287,-5.6165222707,,0.00905738754358,0.0181387032632,0.584597537054,0.811070077641
1501822124741419076,,13545,,1501822124,741419076,"""map""",,,1294.66273564,-1777.10380231,-5.61651618986,,0.00905583675542,0.0181430396278,0.584599807723,0.811068361326
1501822124746423959,,13608,,1501822124,746423959,"""map""",,,1294.66362434,-1777.10035059,-5.61650951712,,0.0090489136538,0.0181474427526,0.584602430119,0.811066449918
1501822124756433010,,13691,,1501822124,756433010,"""map""",,,1294.66542756,-1777.09339072,-5.6164968399,,0.00902368785845,0.0181622224827,0.584605979842,0.811063841547
1501822124761420011,,13713,,1501822124,761420011,"""map""",,,1294.66633976,-1777.0898945,-5.61649120028,,0.00900874471118,0.0181716716278,0.584607998945,0.811062340661
1501822124766424894,,13771,,1501822124,766424894,"""map""",,,1294.66726224,-1777.08636552,-5.61648414497,,0.00899348521162,0.0181811786475,0.584610616663,0.811060410112
1501822124796425104,,13888,,1501822124,796425104,"""map""",,,1294.67295739,-1777.06479459,-5.6164128123,,0.00894005805329,0.0182211511075,0.584626954677,0.811048327093
1501822124801419019,,13908,,1501822124,801419019,"""map""",,,1294.67393163,-1777.06113417,-5.61639552224,,0.00893152071578,0.0182253126255,0.584629428741,0.811046544267
1501822124806423902,,13975,,1501822124,806423902,"""map""",,,1294.67491423,-1777.05744401,-5.61637644971,,0.00892224095088,0.0182309997847,0.584632893062,0.811044021378
1501822124811414957,,13995,,1501822124,811414957,"""map""",,,1294.67590378,-1777.05374186,-5.61635617403,,0.00891348306847,0.0182418117673,0.584635702143,0.811041849662
1501822124816420078,,14061,,1501822124,816420078,"""map""",,,1294.67690093,-1777.05000913,-5.61633345218,,0.00890375128306,0.0182513930897,0.584636780772,0.811040963474
1501822124821412086,,14081,,1501822124,821412086,"""map""",,,1294.67789963,-1777.04626342,-5.61630798602,,0.00889195584823,0.0182618613195,0.584639090773,0.811039192076
1501822124826416969,,14147,,1501822124,826416969,"""map""",,,1294.67890522,-1777.04248751,-5.61628025634,,0.00888010879268,0.0182719915872,0.584641602146,0.811037283379
1501822124831422090,,14169,,1501822124,831422090,"""map""",,,1294.67991787,-1777.03869298,-5.61625088398,,0.00886954884633,0.0182810164116,0.584641726193,0.81103710614
1501822124836426973,,14233,,1501822124,836426973,"""map""",,,1294.68093581,-1777.03487662,-5.61621930736,,0.00885670464928,0.0182895769229,0.584643494665,0.811035778684
1501822124841420888,,14255,,1501822124,841420888,"""map""",,,1294.68195591,-1777.03104802,-5.61618331739,,0.00884270135811,0.0182955540562,0.584644928481,0.811034763087
1501822124846426010,,14319,,1501822124,846426010,"""map""",,,1294.68298568,-1777.02718932,-5.61614307051,,0.00882845657174,0.0183022661045,0.584645771748,0.811034158952
1501822124851418972,,14342,,1501822124,851418972,"""map""",,,1294.68402109,-1777.02331735,-5.61609926205,,0.00881406386685,0.0183109222614,0.584647583636,0.81103281398
1501822124856424093,,14406,,1501822124,856424093,"""map""",,,1294.68505975,-1777.01941221,-5.61605011823,,0.00879412231347,0.0183165465097,0.584650176139,0.811031034596
1501822124861418008,,14429,,1501822124,861418008,"""map""",,,1294.68610036,-1777.01549231,-5.61599735072,,0.0087719528811,0.0183239363626,0.584650061274,0.811031190554
1501822124866422891,,14492,,1501822124,866422891,"""map""",,,1294.68714893,-1777.01154356,-5.61594132068,,0.00875171155272,0.0183320432017,0.584651653707,0.811030078083
1501822124871419906,,14506,,1501822124,871419906,"""map""",,,1294.68820077,-1777.00757953,-5.61588262806,,0.00872958589537,0.0183406440151,0.584651721692,0.811030073073
1501822124876425027,,14567,,1501822124,876425027,"""map""",,,1294.68925856,-1777.00358651,-5.61582109757,,0.00870489897392,0.0183495167613,0.584651860742,0.811030037483
1501822124881417036,,14589,,1501822124,881417036,"""map""",,,1294.6903232,-1776.99958489,-5.61575702742,,0.0086834940157,0.0183595505509,0.5846505158,0.811031009401
1501822124886421918,,14653,,1501822124,886421918,"""map""",,,1294.69139905,-1776.99555141,-5.61569063201,,0.00866136229262,0.0183693639733,0.584649390486,0.811031835056
1501822124891427040,,14675,,1501822124,891427040,"""map""",,,1294.6924802,-1776.99149462,-5.61562167947,,0.00863544202994,0.0183770619174,0.584649969382,0.811031519756
1501822124896431922,,14740,,1501822124,896431922,"""map""",,,1294.69356922,-1776.98741657,-5.61555028268,,0.00860965406567,0.0183845618193,0.584650349283,0.811031350089
1501822124901422023,,14761,,1501822124,901422023,"""map""",,,1294.69466479,-1776.98332812,-5.61547842738,,0.00858429235421,0.0183956373503,0.584650090238,0.811031554525
1501822124926433086,,14815,,1501822124,926433086,"""map""",,,1294.7002383,-1776.96252387,-5.61510385477,,0.00846445305903,0.0184445952587,0.584651013313,0.81103103675
1501822124931437969,,14835,,1501822124,931437969,"""map""",,,1294.70137673,-1776.958297,-5.61502839555,,0.00844086744951,0.0184569258775,0.584650490848,0.811031378675
1501822124936443090,,14901,,1501822124,936443090,"""map""",,,1294.70252461,-1776.95405044,-5.61495340169,,0.0084188890333,0.0184694985222,0.584649919116,0.811031733047
1501822124941442012,,14921,,1501822124,941442012,"""map""",,,1294.70367785,-1776.94978648,-5.61487977524,,0.00839485498401,0.0184820854739,0.584650193084,0.811031497942
1501822124946446895,,14979,,1501822124,946446895,"""map""",,,1294.7048381,-1776.94549573,-5.61480691897,,0.00837126014549,0.0184949503949,0.584651631435,0.811030411683
1501822124951421022,,14999,,1501822124,951421022,"""map""",,,1294.70599897,-1776.9412111,-5.61473605029,,0.00834980142091,0.0185102233127,0.584652392673,0.811029735701
1501822124956425905,,15065,,1501822124,956425905,"""map""",,,1294.70717018,-1776.93687918,-5.61466553979,,0.00832625920018,0.0185216797129,0.584652466268,0.811029663129
1501822124961417913,,15087,,1501822124,961417913,"""map""",,,1294.70834224,-1776.9325373,-5.61459639095,,0.00830082392589,0.018530332341,0.58465222972,0.811029896729
1501822124966423034,,15151,,1501822124,966423034,"""map""",,,1294.70952299,-1776.92816304,-5.6145286031,,0.00827418595224,0.0185372752932,0.584651061589,0.811030852344
1501822124971427917,,15174,,1501822124,971427917,"""map""",,,1294.71071761,-1776.92376705,-5.61446420329,,0.0082512671752,0.0185512346611,0.584651483097,0.811030462803
1501822124976433038,,15237,,1501822124,976433038,"""map""",,,1294.71191905,-1776.91935032,-5.61440106359,,0.00822731378948,0.0185632855902,0.584651757282,0.811030232755
1501822124981437921,,15260,,1501822124,981437921,"""map""",,,1294.71312677,-1776.9149135,-5.61433898255,,0.00820340394033,0.0185744625816,0.584652629132,0.811029590553
1501822124986443042,,15323,,1501822124,986443042,"""map""",,,1294.71433982,-1776.91045802,-5.61427786809,,0.00818101306746,0.0185843325479,0.584653667279,0.811028842241
1501822124991424083,,15346,,1501822124,991424083,"""map""",,,1294.71555633,-1776.90600524,-5.61421951116,,0.00816276094702,0.0185959195623,0.584654961186,0.811027827802
1501822124996428966,,15410,,1501822124,996428966,"""map""",,,1294.71678194,-1776.90151005,-5.61416249947,,0.00814202130963,0.018604284365,0.584655967077,0.811027119308
1501822125001425981,,15432,,1501822125,1425981,"""map""",,,1294.71801151,-1776.89700341,-5.6141076726,,0.00812336513371,0.0186114224893,0.584657909262,0.81102574252
1501822125006431102,,15496,,1501822125,6431102,"""map""",,,1294.71925209,-1776.89246737,-5.61405598858,,0.0081035726136,0.0186213583578,0.58465828047,0.811025444854
1501822125016441106,,15533,,1501822125,16441106,"""map""",,,1294.72175094,-1776.88333117,-5.61395915287,,0.00805533242198,0.0186377133256,0.584662849529,0.811022255948
1501822125036439895,,15561,,1501822125,36439895,"""map""",,,1294.72682473,-1776.86484142,-5.61379339747,,0.00797044598006,0.0186666772594,0.584673657233,0.811014637161
1501822125041435003,,15583,,1501822125,41435003,"""map""",,,1294.72810706,-1776.86017452,-5.61375934357,,0.00795404895901,0.0186744753405,0.584677098929,0.811012137433
1501822125046439886,,15631,,1501822125,46439886,"""map""",,,1294.72939805,-1776.85547956,-5.61372778355,,0.00793782892252,0.0186815395646,0.584679362918,0.811010501491
