rosbagTimestamp,header,seq,stamp,secs,nsecs,frame_id,pose,position,x,y,z,orientation,x,y,z,w
1501822123031317949,,123,,1501822123,31317949,"""map""",,,1294.57871949,-1777.58290589,-5.60174904136,,0.008338020567,0.0189133711254,0.584619350864,0.811044373879
1501822123036323070,,125,,1501822123,36323070,"""map""",,,1294.57861442,-1777.5826431,-5.60174207248,,0.00833293527275,0.0189197074992,0.584620125241,0.811043720167
1501822123041313886,,127,,1501822123,41313886,"""map""",,,1294.57851069,-1777.5823756,-5.60173273712,,0.00832798172871,0.0189246338337,0.58462169762,0.811042522699
1501822123046319007,,163,,1501822123,46319007,"""map""",,,1294.57840787,-1777.58210408,-5.60172251307,,0.00832697666861,0.0189264328167,0.584622401007,0.811041984019
1501822123051310062,,186,,1501822123,51310062,"""map""",,,1294.57830781,-1777.58183461,-5.60171206059,,0.00832638182467,0.0189252133685,0.584624895047,0.8110402208
1501822123056314945,,251,,1501822123,56314945,"""map""",,,1294.57820752,-1777.58156314,-5.6017025071,,0.0083299703155,0.0189251755661,0.58462666426,0.811038909523
1501822123061312913,,273,,1501822123,61312913,"""map""",,,1294.57811177,-1777.58129185,-5.60169498955,,0.00833496762759,0.0189261134828,0.584628972182,0.811037172655
1501822123066318035,,337,,1501822123,66318035,"""map""",,,1294.57801866,-1777.58101777,-5.60168853034,,0.00833735266963,0.0189281975446,0.584630557256,0.811035956916
1501822123071316003,,359,,1501822123,71316003,"""map""",,,1294.57792746,-1777.58073906,-5.60168079522,,0.00833669930489,0.0189287255011,0.584632640986,0.811034449262
1501822123076320886,,423,,1501822123,76320886,"""map""",,,1294.57783558,-1777.58045503,-5.60167055582,,0.00832701894636,0.0189345466519,0.584637395754,0.811030985342
1501822123086330890,,500,,1501822123,86330890,"""map""",,,1294.57765598,-1777.57986801,-5.60164894653,,0.0083187706747,0.0189377784127,0.584637901864,0.811030629697
1501822123091317892,,520,,1501822123,91317892,"""map""",,,1294.57756785,-1777.57956894,-5.60163959441,,0.0083120192094,0.0189414498834,0.584639146488,0.811029715982
1501822123096323013,,587,,1501822123,96323013,"""map""",,,1294.57748223,-1777.57926699,-5.60163220793,,0.00830699220068,0.0189439536297,0.584640746631,0.811028555527
1501822123101306915,,607,,1501822123,101306915,"""map""",,,1294.57739906,-1777.57896548,-5.60162740312,,0.00830487838649,0.0189440412665,0.584643074362,0.811026897147
1501822123106312036,,672,,1501822123,106312036,"""map""",,,1294.5773169,-1777.57866285,-5.60162464984,,0.00830630925295,0.0189445543297,0.584645097376,0.81102541218
1501822123111316919,,694,,1501822123,111316919,"""map""",,,1294.57723788,-1777.57835974,-5.60162387658,,0.00831052138185,0.0189419762107,0.584647465555,0.811023722089
1501822123116322040,,731,,1501822123,116322040,"""map""",,,1294.57715923,-1777.57805751,-5.60162313258,,0.00831205533501,0.0189372483295,0.584648754381,0.811022887694
1501822123121309995,,752,,1501822123,121309995,"""map""",,,1294.57707919,-1777.57775335,-5.60162289372,,0.00831408833612,0.0189313898742,0.584650040646,0.811022076386
1501822123126315116,,818,,1501822123,126315116,"""map""",,,1294.5769988,-1777.57744645,-5.6016231622,,0.00831259142754,0.0189292758978,0.584651193377,0.811021310091
1501822123131309986,,838,,1501822123,131309986,"""map""",,,1294.5769199,-1777.577134,-5.60162581681,,0.00831084529712,0.0189278965814,0.584651558659,0.811021096852
1501822123136315107,,904,,1501822123,136315107,"""map""",,,1294.57684223,-1777.57681841,-5.60163000368,,0.00830736005071,0.0189306435075,0.584651340635,0.811021225616
1501822123141313076,,925,,1501822123,141313076,"""map""",,,1294.57676726,-1777.57649717,-5.60163654671,,0.00830217272298,0.0189348964658,0.584649779145,0.8110223051
1501822123146317958,,990,,1501822123,146317958,"""map""",,,1294.57669365,-1777.57616995,-5.60164480802,,0.00829851171939,0.0189378422736,0.584648580464,0.811023137891
1501822123151314973,,1011,,1501822123,151314973,"""map""",,,1294.57662133,-1777.57584048,-5.60165310204,,0.0082960904181,0.0189365805086,0.584648964216,0.811022915486
1501822123156320095,,1077,,1501822123,156320095,"""map""",,,1294.57654753,-1777.57550904,-5.60166103212,,0.00829722129789,0.018934870872,0.584648658918,0.811023163917
1501822123181322097,,1116,,1501822123,181322097,"""map""",,,1294.57618117,-1777.57384309,-5.60172917713,,0.00830680971475,0.018911023901,0.584646786833,0.811024971707
1501822123191324949,,1195,,1501822123,191324949,"""map""",,,1294.57603737,-1777.57315241,-5.60176250577,,0.00829521786159,0.0189089456856,0.584641844385,0.811028701667
1501822123201319932,,1256,,1501822123,201319932,"""map""",,,1294.5758916,-1777.57243319,-5.60179420774,,0.00828460842655,0.0189060142048,0.584639243036,0.811030753666
1501822123206325054,,1321,,1501822123,206325054,"""map""",,,1294.57582147,-1777.57206732,-5.60181096777,,0.00828233452874,0.018901934519,0.584638078544,0.811031711416
1501822123211316108,,1343,,1501822123,211316108,"""map""",,,1294.57575201,-1777.57170137,-5.60182861823,,0.00828351776979,0.0189000281443,0.584635413083,0.81103366517
1501822123216320991,,1405,,1501822123,216320991,"""map""",,,1294.57568633,-1777.57133249,-5.60184820706,,0.00829380021958,0.0188894787911,0.584635824974,0.811033508941
1501822123226330995,,1464,,1501822123,226330995,"""map""",,,1294.57555227,-1777.57059323,-5.60188673491,,0.00829873254851,0.0188836282653,0.584635452884,0.811033862951
1501822123231336116,,1488,,1501822123,231336116,"""map""",,,1294.57548474,-1777.57021974,-5.6019047304,,0.00829918922759,0.018878954298,0.584634317977,0.811034785189
1501822123246340990,,1613,,1501822123,246340990,"""map""",,,1294.575281,-1777.56906903,-5.60195642219,,0.00828756635035,0.0188788188418,0.584633486727,0.811035506399
1501822123251327991,,1630,,1501822123,251327991,"""map""",,,1294.57521479,-1777.56867696,-5.60197481787,,0.00827984007473,0.018879512003,0.584631840016,0.811036756204
1501822123256333112,,1695,,1501822123,256333112,"""map""",,,1294.57514757,-1777.56827937,-5.6019939265,,0.00827603933874,0.0188814441996,0.584631639655,0.811036894446
1501822123261332988,,1714,,1501822123,261332988,"""map""",,,1294.5750838,-1777.5678788,-5.60201350884,,0.00827675255246,0.0188836261706,0.584629928079,0.811038070145
1501822123266338109,,1780,,1501822123,266338109,"""map""",,,1294.57502347,-1777.56747483,-5.60203260696,,0.00827891086376,0.0188838249883,0.584629572615,0.81103829972
1501822123271338939,,1800,,1501822123,271338939,"""map""",,,1294.57496328,-1777.56706713,-5.60205003857,,0.00828385785048,0.0188800592487,0.584629178061,0.811038621288
1501822123276344060,,1866,,1501822123,276344060,"""map""",,,1294.57490288,-1777.56665825,-5.60206492459,,0.00829223140991,0.0188757048215,0.584630067058,0.811037996248
1501822123281330108,,1886,,1501822123,281330108,"""map""",,,1294.57484439,-1777.56625046,-5.60207844271,,0.00829896148064,0.0188740673244,0.58463018812,0.811037878252
1501822123286334991,,1953,,1501822123,286334991,"""map""",,,1294.57478671,-1777.56583724,-5.60209200064,,0.00830508209117,0.0188737581192,0.584631099742,0.811037165659
1501822123291340112,,1975,,1501822123,291340112,"""map""",,,1294.5747293,-1777.56542181,-5.60210516263,,0.0083093752993,0.0188768993237,0.584632224727,0.811036237639
1501822123296344995,,2021,,1501822123,296344995,"""map""",,,1294.57467295,-1777.56500198,-5.60211819623,,0.00830826764848,0.0188821929063,0.584632500575,0.811035926918
1501822123301337957,,2044,,1501822123,301337957,"""map""",,,1294.57461593,-1777.5645756,-5.6021304063,,0.00830293261782,0.0188880519812,0.584633483763,0.811035136394
1501822123306343078,,2108,,1501822123,306343078,"""map""",,,1294.5745577,-1777.56414021,-5.60214162661,,0.00829604185581,0.0188940068472,0.584634314491,0.811034469375
1501822123311328887,,2131,,1501822123,311328887,"""map""",,,1294.57450001,-1777.56370001,-5.60215146366,,0.0082916248335,0.0188984793675,0.584633711728,0.811034844841
1501822123316334009,,2186,,1501822123,316334009,"""map""",,,1294.57444402,-1777.5632552,-5.60216020576,,0.00829019416531,0.0189008731836,0.584634224398,0.811034434125
1501822123321332931,,2209,,1501822123,321332931,"""map""",,,1294.57438971,-1777.56280829,-5.60216851837,,0.0082919334907,0.018901328005,0.584635452214,0.811033520671
1501822123326338052,,2272,,1501822123,326338052,"""map""",,,1294.57433687,-1777.56235882,-5.6021775446,,0.0082986705809,0.0189005636236,0.584636350592,0.811032821979
1501822123331326961,,2295,,1501822123,331326961,"""map""",,,1294.57428692,-1777.56190994,-5.60218700178,,0.0083062662243,0.0189006945882,0.584637411135,0.811031976674
1501822123336332082,,2358,,1501822123,336332082,"""map""",,,1294.57423853,-1777.56145496,-5.60219702272,,0.00831496227052,0.0189039446552,0.584639390093,0.811030385269
1501822123341336965,,2381,,1501822123,341336965,"""map""",,,1294.5741935,-1777.56099423,-5.60220663897,,0.0083223082336,0.0189065566503,0.584640824949,0.811029214704
1501822123346342086,,2445,,1501822123,346342086,"""map""",,,1294.57414855,-1777.56052819,-5.60221384089,,0.0083270854687,0.0189103139238,0.584642716003,0.811027714878
1501822123351334095,,2467,,1501822123,351334095,"""map""",,,1294.57410454,-1777.56005654,-5.60221835538,,0.00832696807817,0.0189150928067,0.584643952068,0.811026713603
1501822123356338977,,2533,,1501822123,356338977,"""map""",,,1294.57406004,-1777.55957611,-5.60222120369,,0.00832570639557,0.0189205848723,0.584643836831,0.81102668152
1501822123361336946,,2554,,1501822123,361336946,"""map""",,,1294.57401681,-1777.55909121,-5.60222354256,,0.00832231584287,0.0189275002866,0.584645342409,0.811025469632
1501822123366342067,,2619,,1501822123,366342067,"""map""",,,1294.57397425,-1777.55859847,-5.60222740331,,0.00832028325118,0.0189353924084,0.584646011031,0.811024824273
1501822123371330976,,2640,,1501822123,371330976,"""map""",,,1294.57393475,-1777.55810242,-5.60223314811,,0.00831887461213,0.0189419559999,0.584646282068,0.81102449007
1501822123376336097,,2706,,1501822123,376336097,"""map""",,,1294.57389664,-1777.55760003,-5.602239649,,0.00832019592186,0.0189471756995,0.584646684402,0.811024064557
1501822123381336927,,2727,,1501822123,381336927,"""map""",,,1294.57386096,-1777.55709406,-5.6022463116,,0.00832477529502,0.0189499203919,0.584648001548,0.811023003939
1501822123386342048,,2793,,1501822123,386342048,"""map""",,,1294.57382716,-1777.55658405,-5.60225215968,,0.0083311528299,0.0189500884446,0.584648900097,0.811022286781
1501822123391346931,,2815,,1501822123,391346931,"""map""",,,1294.57379469,-1777.55606989,-5.60225668972,,0.00833734698008,0.0189492436049,0.584649618012,0.811021725338
1501822123396352052,,2884,,1501822123,396352052,"""map""",,,1294.57376375,-1777.55554958,-5.60226046542,,0.00834390789555,0.0189504245499,0.584650697134,0.811020852353
1501822123401329994,,2901,,1501822123,401329994,"""map""",,,1294.57373578,-1777.55502562,-5.60226497862,,0.00835163678793,0.0189649018576,0.584651019916,0.811020201704
1501822123416344881,,2982,,1501822123,416344881,"""map""",,,1294.57365987,-1777.55340768,-5.60228334068,,0.00835289251447,0.0189730811122,0.584649818922,0.811020863242
1501822123421331882,,3001,,1501822123,421331882,"""map""",,,1294.57363886,-1777.55285955,-5.60229043144,,0.0083527092828,0.0189796075467,0.58465044807,0.811020258882
1501822123426337003,,3065,,1501822123,426337003,"""map""",,,1294.5736176,-1777.55230278,-5.60229732911,,0.00835432439329,0.0189877276005,0.584649827295,0.811020499684
1501822123431341886,,3087,,1501822123,431341886,"""map""",,,1294.57360142,-1777.55173945,-5.60230469015,,0.00835616685919,0.0189930282654,0.584649819989,0.811020361853
1501822123436347007,,3147,,1501822123,436347007,"""map""",,,1294.57358621,-1777.55116982,-5.60231238923,,0.00835680581599,0.0189954073785,0.584649878936,0.811020257056
1501822123441340923,,3172,,1501822123,441340923,"""map""",,,1294.57357106,-1777.5505942,-5.60232055341,,0.00836209775003,0.0189987114419,0.58464900499,0.811020755129
1501822123446346044,,3234,,1501822123,446346044,"""map""",,,1294.5735614,-1777.55001338,-5.60232971586,,0.00836735300612,0.0190008042518,0.584648144968,0.811021271871
1501822123451340913,,3257,,1501822123,451340913,"""map""",,,1294.57355282,-1777.54942882,-5.60233951792,,0.00837403157565,0.019001787371,0.584648632153,0.811020828705
1501822123456346035,,3323,,1501822123,456346035,"""map""",,,1294.57354565,-1777.54883938,-5.60234915134,,0.00837950691134,0.0190010609411,0.584648189052,0.811021108594
1501822123461350917,,3344,,1501822123,461350917,"""map""",,,1294.57353862,-1777.54824551,-5.60235941349,,0.00838391788693,0.0190010461234,0.584648556455,0.811020798502
1501822123466356039,,3409,,1501822123,466356039,"""map""",,,1294.57353237,-1777.54764599,-5.60237112017,,0.00838591482964,0.0190014437594,0.584647613053,0.811021448618
1501822123471330881,,3431,,1501822123,471330881,"""map""",,,1294.5735272,-1777.54704316,-5.60238378184,,0.00838742009599,0.0190050569503,0.584646453194,0.811022184507
1501822123476336002,,3494,,1501822123,476336002,"""map""",,,1294.57352573,-1777.54642929,-5.60239775818,,0.00838654772544,0.0190090818453,0.584644965121,0.811023171915
1501822123481334924,,3517,,1501822123,481334924,"""map""",,,1294.57352563,-1777.54580856,-5.60241189009,,0.00838640194125,0.0190133270226,0.584643256688,0.811024305472
1501822123486340045,,3581,,1501822123,486340045,"""map""",,,1294.57352816,-1777.54518174,-5.60242617917,,0.00838465616416,0.0190152448767,0.584642210006,0.81102503308
1501822123491341114,,3603,,1501822123,491341114,"""map""",,,1294.5735306,-1777.54454967,-5.60244123066,,0.00838550073437,0.0190168901644,0.584641877261,0.811025225637
1501822123496345996,,3668,,1501822123,496345996,"""map""",,,1294.57353632,-1777.54391314,-5.60245749064,,0.0083884075507,0.0190164358101,0.584641309672,0.811025615386
1501822123501351118,,3688,,1501822123,501351118,"""map""",,,1294.57354431,-1777.54327267,-5.60247488146,,0.00839275297431,0.0190164223242,0.584639908336,0.811026580921
1501822123506356000,,3755,,1501822123,506356000,"""map""",,,1294.57355619,-1777.5426263,-5.60249328489,,0.00839592375778,0.0190173180612,0.584640105589,0.811026384907
1501822123511360883,,3776,,1501822123,511360883,"""map""",,,1294.57357034,-1777.5419717,-5.6025126063,,0.00839510075833,0.0190159866711,0.584638192869,0.811027803452
1501822123516366004,,3841,,1501822123,516366004,"""map""",,,1294.57358886,-1777.54131216,-5.60253186329,,0.00839543157302,0.0190166776771,0.584637884946,0.811028005796
1501822123521370887,,3863,,1501822123,521370887,"""map""",,,1294.57360964,-1777.54064457,-5.60255086365,,0.00839436097386,0.019015519728,0.584636654048,0.811028931332
1501822123526376008,,3928,,1501822123,526376008,"""map""",,,1294.57363131,-1777.53997142,-5.60256918902,,0.00839204262628,0.0190140605178,0.584636053088,0.811029422742
1501822123531339883,,3940,,1501822123,531339883,"""map""",,,1294.57365448,-1777.53929751,-5.60258734843,,0.00838885853507,0.019013791273,0.584634677932,0.811030453283
1501822123536345005,,4007,,1501822123,536345005,"""map""",,,1294.57368087,-1777.5386108,-5.60260703382,,0.00838658428328,0.0190156282994,0.584633843953,0.811031034911
1501822123541349887,,4028,,1501822123,541349887,"""map""",,,1294.57371172,-1777.53791762,-5.60262836006,,0.00838130842483,0.0190141621769,0.58463332969,0.811031494531
1501822123546355009,,4091,,1501822123,546355009,"""map""",,,1294.57374209,-1777.53721754,-5.60265044948,,0.00837819744504,0.0190151034233,0.584632923171,0.811031797647
1501822123551359891,,4113,,1501822123,551359891,"""map""",,,1294.57377784,-1777.53651135,-5.60267353644,,0.00837557808572,0.0190128291075,0.584632733144,0.811032015001
1501822123556365013,,4166,,1501822123,556365013,"""map""",,,1294.57381458,-1777.53580058,-5.60269633685,,0.00837483021208,0.0190104006526,0.584632096486,0.811032538585
1501822123561369895,,4188,,1501822123,561369895,"""map""",,,1294.57385537,-1777.53508475,-5.602719168,,0.00837411150377,0.0190050133423,0.584632080593,0.811032683723
1501822123566375017,,4254,,1501822123,566375017,"""map""",,,1294.5738967,-1777.53436421,-5.60274190146,,0.00837327567202,0.0190001626771,0.584631078757,0.811033528175
1501822123571379899,,4274,,1501822123,571379899,"""map""",,,1294.57394107,-1777.53363753,-5.6027655513,,0.00836704589293,0.0190000320925,0.584633537486,0.811031823155
1501822123586390972,,4334,,1501822123,586390972,"""map""",,,1294.57409722,-1777.53140828,-5.60284488741,,0.00836202655633,0.0190007893567,0.584634172366,0.811031399527
1501822123591396093,,4354,,1501822123,591396093,"""map""",,,1294.57415476,-1777.53064929,-5.60287183238,,0.00835812269882,0.0189999608095,0.584634791445,0.811031012913
1501822123596400976,,4420,,1501822123,596400976,"""map""",,,1294.57421477,-1777.52988489,-5.60289846441,,0.00835497442767,0.0189972668298,0.58463639189,0.81102995477
1501822123601402997,,4440,,1501822123,601402997,"""map""",,,1294.5742761,-1777.52911602,-5.60292524216,,0.00835473235415,0.0189963270696,0.584637691916,0.811029042141
1501822123606408119,,4506,,1501822123,606408119,"""map""",,,1294.57434232,-1777.52834156,-5.60295394323,,0.0083543065733,0.0189931624513,0.584639807886,0.811027595324
1501822123611346006,,4526,,1501822123,611346006,"""map""",,,1294.57440169,-1777.52756693,-5.60298329679,,0.00835398346955,0.0189915466204,0.584642101111,0.811025983385
1501822123616350889,,4593,,1501822123,616350889,"""map""",,,1294.57446442,-1777.52677497,-5.60301479187,,0.00835693362259,0.0189898793895,0.584643708935,0.811024833
1501822123621347904,,4616,,1501822123,621347904,"""map""",,,1294.57453095,-1777.52598062,-5.60304714001,,0.00835702883047,0.0189876688767,0.584645996226,0.81102323493
1501822123626353025,,4679,,1501822123,626353025,"""map""",,,1294.57459769,-1777.52517694,-5.60307907303,,0.00835683857728,0.0189853206469,0.584645932583,0.811023337742
1501822123631357908,,4700,,1501822123,631357908,"""map""",,,1294.57466657,-1777.52436642,-5.60311091558,,0.00835614170019,0.0189828911589,0.584646671533,0.811022869101
1501822123636363029,,4765,,1501822123,636363029,"""map""",,,1294.57473696,-1777.52354836,-5.60314297457,,0.0083528245951,0.0189791839666,0.584648484322,0.811021683235
1501822123641346931,,4786,,1501822123,641346931,"""map""",,,1294.57480702,-1777.52272458,-5.60317525067,,0.00835198817963,0.018979910972,0.58464939054,0.811021021561
1501822123646352052,,4851,,1501822123,646352052,"""map""",,,1294.57488336,-1777.52188892,-5.60320909039,,0.00835019782844,0.0189781936984,0.584650153894,0.811020529895
1501822123651346921,,4873,,1501822123,651346921,"""map""",,,1294.57495934,-1777.52104769,-5.60324299078,,0.00835005830026,0.0189767176185,0.58465204678,0.811019201321
1501822123656352043,,4938,,1501822123,656352043,"""map""",,,1294.57503762,-1777.52019779,-5.60327714944,,0.00835146715351,0.0189730607971,0.584654311011,0.811017640114
1501822123661343097,,4961,,1501822123,661343097,"""map""",,,1294.57511642,-1777.51934456,-5.60331069138,,0.00835234028143,0.01896932329,0.584656591749,0.811016074385
1501822123666347980,,5026,,1501822123,666347980,"""map""",,,1294.57519627,-1777.5184816,-5.60334471502,,0.00835325800958,0.0189641774523,0.584657312311,0.811015665826
1501822123671353101,,5047,,1501822123,671353101,"""map""",,,1294.57527678,-1777.51761272,-5.60337835218,,0.00835416846603,0.0189590317579,0.584657836342,0.811015398983
1501822123676357984,,5112,,1501822123,676357984,"""map""",,,1294.57535878,-1777.51673685,-5.60341229347,,0.00835380191912,0.018956543644,0.584658369483,0.81101507658
1501822123681356906,,5134,,1501822123,681356906,"""map""",,,1294.57544313,-1777.51585278,-5.60344711889,,0.00835179912023,0.0189538140389,0.584658166094,0.811015307626
1501822123686362028,,5197,,1501822123,686362028,"""map""",,,1294.57552802,-1777.51495968,-5.60348218349,,0.00834624415112,0.0189515322191,0.584658651914,0.81101506791
1501822123691345930,,5219,,1501822123,691345930,"""map""",,,1294.57561239,-1777.5140601,-5.60351660323,,0.00834393293187,0.0189509459269,0.584658828235,0.811014978282
1501822123696351051,,5283,,1501822123,696351051,"""map""",,,1294.575702,-1777.51314963,-5.60355085416,,0.00833883285882,0.0189471955775,0.584659709782,0.811014482857
1501822123701350927,,5305,,1501822123,701350927,"""map""",,,1294.57578973,-1777.51223102,-5.60358455831,,0.0083355744385,0.0189438260512,0.584661517108,0.811013292164
1501822123706356048,,5373,,1501822123,706356048,"""map""",,,1294.57588033,-1777.51130273,-5.603618507,,0.00833209689814,0.0189397831144,0.584660583806,0.811014095143
1501822123711355924,,5393,,1501822123,711355924,"""map""",,,1294.57597262,-1777.51036704,-5.60365246798,,0.00833087239554,0.018936738431,0.584659377386,0.811015048527
1501822123716361045,,5459,,1501822123,716361045,"""map""",,,1294.57606874,-1777.50942307,-5.60368692478,,0.00833019044251,0.0189304772411,0.584659763071,0.811014923663
1501822123721354007,,5479,,1501822123,721354007,"""map""",,,1294.57616404,-1777.50847578,-5.60372065718,,0.00833085952776,0.0189264048765,0.584658118812,0.811016197178
1501822123726358890,,5544,,1501822123,726358890,"""map""",,,1294.57626301,-1777.50752012,-5.60375523036,,0.00833022900115,0.018920481503,0.584658302643,0.811016209342
1501822123731359004,,5566,,1501822123,731359004,"""map""",,,1294.5763606,-1777.50655885,-5.60378985628,,0.00833027375299,0.0189165257059,0.584658052431,0.811016481535
1501822123736363887,,5631,,1501822123,736363887,"""map""",,,1294.57646101,-1777.50559008,-5.60382529039,,0.00832829337289,0.01891413446,0.584656861074,0.811017416488
1501822123741369009,,5653,,1501822123,741369009,"""map""",,,1294.57656266,-1777.50461282,-5.60386191159,,0.00832529335681,0.0189131315979,0.584654504371,0.811019169602
1501822123746373891,,5718,,1501822123,746373891,"""map""",,,1294.57666723,-1777.50362639,-5.6038992682,,0.00832033328693,0.0189145652285,0.584653556074,0.811019870685
1501822123751353025,,5740,,1501822123,751353025,"""map""",,,1294.57677399,-1777.50263382,-5.60393720916,,0.00831731823377,0.0189153089678,0.584651968171,0.811021028962
1501822123756357908,,5804,,1501822123,756357908,"""map""",,,1294.57688496,-1777.50162895,-5.60397515554,,0.00831441358294,0.0189158550223,0.584649592227,0.811022758783
1501822123761363029,,5813,,1501822123,761363029,"""map""",,,1294.57699935,-1777.50061528,-5.60401325405,,0.00831398890719,0.0189133680027,0.584648553243,0.81102357012
1501822123766367912,,5878,,1501822123,766367912,"""map""",,,1294.57711574,-1777.4995953,-5.60405107255,,0.0083160077953,0.0189108068584,0.584648033957,0.811023983486
1501822123771373033,,5900,,1501822123,771373033,"""map""",,,1294.57723579,-1777.49856874,-5.60408975194,,0.00832081494525,0.0189060275756,0.584648637246,0.811023610709
1501822123776377916,,5964,,1501822123,776377916,"""map""",,,1294.57735754,-1777.49753738,-5.60412969763,,0.0083259741931,0.0189011892517,0.58464962432,0.811022958973
1501822123781363010,,5986,,1501822123,781363010,"""map""",,,1294.5774806,-1777.49650405,-5.60417139568,,0.00833112618661,0.0188963510664,0.584650414846,0.811022448933
1501822123786367893,,6049,,1501822123,786367893,"""map""",,,1294.57760592,-1777.49546085,-5.60421384601,,0.00833632251804,0.0188939359491,0.584650391478,0.81102246865
1501822123791357040,,6072,,1501822123,791357040,"""map""",,,1294.57773445,-1777.49441486,-5.60425658925,,0.00833873046277,0.0188916538786,0.584649661093,0.811023023577
1501822123796361923,,6136,,1501822123,796361923,"""map""",,,1294.57786496,-1777.4933569,-5.60429907149,,0.00833849618012,0.0188910528126,0.584649580149,0.811023098338
1501822123801362037,,6158,,1501822123,801362037,"""map""",,,1294.57799859,-1777.4922891,-5.60434173078,,0.00833414562092,0.0188911582588,0.584647841209,0.811024394162
1501822123806366920,,6225,,1501822123,806366920,"""map""",,,1294.5781348,-1777.49120775,-5.60438462165,,0.00832954493118,0.0188925327606,0.584647473208,0.811024674692
1501822123811364889,,6246,,1501822123,811364889,"""map""",,,1294.5782747,-1777.49011672,-5.6044277854,,0.00832670604697,0.0188942895808,0.584645869408,0.811025819054
1501822123816370010,,6311,,1501822123,816370010,"""map""",,,1294.57842002,-1777.48901602,-5.60447167525,,0.00832694152383,0.0188934316519,0.584645580767,0.811026044696
1501822123821360111,,6332,,1501822123,821360111,"""map""",,,1294.57856792,-1777.48791326,-5.60451657595,,0.00833072853624,0.0188917870854,0.584646180544,0.811025611752
1501822123826364994,,6396,,1501822123,826364994,"""map""",,,1294.5787196,-1777.48680207,-5.60456368025,,0.00833710631504,0.0188881236834,0.584646332683,0.811025521869
1501822123831356048,,6417,,1501822123,831356048,"""map""",,,1294.57887301,-1777.48568997,-5.60461192707,,0.00834604516393,0.0188821032108,0.584646828498,0.811025212701
1501822123836360931,,6443,,1501822123,836360931,"""map""",,,1294.57902908,-1777.48457017,-5.6046607679,,0.00835555599524,0.0188761627091,0.584648290358,0.811024199237
1501822123841363906,,6464,,1501822123,841363906,"""map""",,,1294.57918813,-1777.48344315,-5.60470981516,,0.00836276957996,0.0188739294162,0.584650173451,0.811022819381
1501822123846369028,,6487,,1501822123,846369028,"""map""",,,1294.57935155,-1777.4823032,-5.60475907742,,0.00836365721707,0.0188743618497,0.584652016136,0.811021471806
1501822123851373910,,6507,,1501822123,851373910,"""map""",,,1294.57951678,-1777.4811485,-5.60480789154,,0.00836267415009,0.0188773723649,0.584652312345,0.811021198344
1501822123856379032,,6578,,1501822123,856379032,"""map""",,,1294.57968662,-1777.47998253,-5.60485576378,,0.00835897549027,0.018879641344,0.584653285753,0.811020481942
1501822123861365079,,6593,,1501822123,861365079,"""map""",,,1294.579857,-1777.47881093,-5.60490320786,,0.00835254715708,0.0188773376582,0.584653796866,0.811020233341
1501822123866369962,,6656,,1501822123,866369962,"""map""",,,1294.58002681,-1777.47762775,-5.60495162933,,0.00835225374977,0.0188751869531,0.584654717642,0.811019622644
1501822123871364116,,6679,,1501822123,871364116,"""map""",,,1294.5802014,-1777.47644374,-5.60500255578,,0.00835521877213,0.0188717732035,0.584655556746,0.811019066645
1501822123876368999,,6744,,1501822123,876368999,"""map""",,,1294.58037888,-1777.47525236,-5.60505740538,,0.00836102318792,0.0188673522519,0.584657897488,0.811017422263
1501822123881359100,,6765,,1501822123,881359100,"""map""",,,1294.58055865,-1777.47405796,-5.60511478482,,0.00836986629107,0.0188636143818,0.584659158754,0.811016508757
1501822123886363983,,6829,,1501822123,886363983,"""map""",,,1294.58074353,-1777.4728523,-5.60517359845,,0.0083766325971,0.0188569330164,0.584660511545,0.81101561905
1501822123891369104,,6851,,1501822123,891369104,"""map""",,,1294.58092857,-1777.47163685,-5.60523117563,,0.00838295129597,0.0188517200491,0.584661665152,0.811014843317
1501822123896373987,,6907,,1501822123,896373987,"""map""",,,1294.58111777,-1777.47041078,-5.60528766849,,0.00838454399022,0.0188443715383,0.584662782259,0.811014192308
1501822123901367902,,6929,,1501822123,901367902,"""map""",,,1294.58130614,-1777.46917642,-5.60534335745,,0.00838400115484,0.018838785253,0.584663746331,0.811013632697
1501822123906373023,,6994,,1501822123,906373023,"""map""",,,1294.58149741,-1777.46792948,-5.60540015588,,0.00838384782217,0.018834690046,0.584663503009,0.811013904811
1501822123911370992,,7020,,1501822123,911370992,"""map""",,,1294.58169213,-1777.46667721,-5.60545940943,,0.00838134587521,0.0188310058945,0.584663717246,0.811013861777
1501822123916376113,,7088,,1501822123,916376113,"""map""",,,1294.58188829,-1777.46541512,-5.60552240839,,0.00838257151054,0.0188275481534,0.584664804107,0.811013145864
1501822123921372890,,7103,,1501822123,921372890,"""map""",,,1294.58208787,-1777.46415006,-5.60558807482,,0.00838376786682,0.0188249641439,0.584665685903,0.811012557788
1501822123926378011,,7166,,1501822123,926378011,"""map""",,,1294.58229084,-1777.46287399,-5.60565594974,,0.00838820819839,0.0188211174347,0.584666092998,0.811012307675
1501822123931365966,,7188,,1501822123,931365966,"""map""",,,1294.58249729,-1777.46159491,-5.6057234361,,0.00839402848501,0.0188152888133,0.584666087227,0.81101238686
1501822123936371088,,7254,,1501822123,936371088,"""map""",,,1294.58270783,-1777.46030238,-5.60578991316,,0.0083982269784,0.0188071332729,0.584666153078,0.811012485087
1501822123941358089,,7276,,1501822123,941358089,"""map""",,,1294.5829189,-1777.45900347,-5.60585537658,,0.00840280729244,0.0187992569566,0.584665811386,0.811012866583
1501822123946362972,,7339,,1501822123,946362972,"""map""",,,1294.58313395,-1777.45769002,-5.60592110817,,0.00840897962436,0.0187933692572,0.584666189344,0.811012666591
1501822123951363086,,7361,,1501822123,951363086,"""map""",,,1294.58335293,-1777.45636971,-5.6059880705,,0.00841430104484,0.0187857129411,0.584666020377,0.81101291059
1501822123956367969,,7428,,1501822123,956367969,"""map""",,,1294.58357346,-1777.45504161,-5.60605633136,,0.00842001080027,0.0187800819083,0.584666802495,0.811012417908
1501822123961370944,,7447,,1501822123,961370944,"""map""",,,1294.58379756,-1777.45370632,-5.6061265922,,0.00842333578328,0.0187748627053,0.584667059544,0.811012318913
1501822123966376066,,7513,,1501822123,966376066,"""map""",,,1294.5840228,-1777.45236074,-5.60619844567,,0.00842743219249,0.0187714138788,0.584665701826,0.81101333498
1501822123971380949,,7533,,1501822123,971380949,"""map""",,,1294.58425266,-1777.45100543,-5.60627035548,,0.00843102936219,0.0187670104547,0.58466476204,0.811014077
1501822123976386070,,7600,,1501822123,976386070,"""map""",,,1294.58448505,-1777.44963932,-5.60634102799,,0.00843243159888,0.0187607343475,0.584665086027,0.811013974063
1501822123981373071,,7622,,1501822123,981373071,"""map""",,,1294.58471735,-1777.44826631,-5.60641025086,,0.00843514824638,0.018756309163,0.584663975356,0.811014848854
1501822123986377954,,7688,,1501822123,986377954,"""map""",,,1294.5849551,-1777.44687849,-5.60647976616,,0.00843813543782,0.018749063541,0.584664656711,0.811014494124
1501822123991383075,,7709,,1501822123,991383075,"""map""",,,1294.58519339,-1777.44548342,-5.60655012613,,0.00844040397099,0.0187398512647,0.584664592536,0.8110147297
1501822123996388912,,7772,,1501822123,996388912,"""map""",,,1294.5854333,-1777.44408118,-5.6066221163,,0.00844534450892,0.0187322546975,0.584663253395,0.811015819155
1501822124001374959,,7793,,1501822124,1374959,"""map""",,,1294.58567748,-1777.44267795,-5.60669603234,,0.00845054811683,0.0187247960925,0.584663675632,0.811015632799
1501822124006380081,,7859,,1501822124,6380081,"""map""",,,1294.58592499,-1777.44126026,-5.60677127752,,0.00845664787714,0.01871978311,0.584662669261,0.811016410438
1501822124011374950,,7881,,1501822124,11374950,"""map""",,,1294.58617725,-1777.439835,-5.60684685963,,0.00845823380501,0.0187136467883,0.584662592736,0.811016590681
1501822124016380071,,7947,,1501822124,16380071,"""map""",,,1294.5864301,-1777.43839378,-5.60692184494,,0.00845855775217,0.018706336384,0.584662171637,0.811017059522
1501822124021384954,,7967,,1501822124,21384954,"""map""",,,1294.58668451,-1777.43694179,-5.60699552099,,0.00845736966825,0.0186982476667,0.584662196004,0.811017240875
1501822124026390075,,8032,,1501822124,26390075,"""map""",,,1294.58694016,-1777.43548009,-5.60706852544,,0.0084604610531,0.0186890584884,0.584660730254,0.811018477095
1501822124031367063,,8055,,1501822124,31367063,"""map""",,,1294.58719916,-1777.43402208,-5.60714173528,,0.00846146101703,0.0186798844016,0.584659128357,0.811019832818
1501822124036371946,,8117,,1501822124,36371946,"""map""",,,1294.58746179,-1777.43254661,-5.60721763814,,0.00846134502489,0.0186731691748,0.584658123553,0.811020713026
1501822124041377067,,8139,,1501822124,41377067,"""map""",,,1294.58772819,-1777.43106022,-5.60729649192,,0.00846292439871,0.0186682451216,0.584656854192,0.811021724975
1501822124046381950,,8203,,1501822124,46381950,"""map""",,,1294.58799959,-1777.42956438,-5.60737662618,,0.00846624928991,0.0186630258644,0.584657110957,0.811021625295
1501822124051366090,,8226,,1501822124,51366090,"""map""",,,1294.58827407,-1777.42806535,-5.60745575855,,0.00846827554173,0.0186554212764,0.584657036648,0.811021832668
1501822124056370973,,8291,,1501822124,56370973,"""map""",,,1294.58855155,-1777.4265494,-5.60753353828,,0.00846807113472,0.0186450717576,0.584656662018,0.811022342866
1501822124061376094,,8312,,1501822124,61376094,"""map""",,,1294.58882988,-1777.42502265,-5.60760948314,,0.0084712504854,0.0186353464972,0.584655395726,0.811023446039
1501822124066380977,,8372,,1501822124,66380977,"""map""",,,1294.58911373,-1777.4234883,-5.60768520077,,0.0084718166193,0.0186264283823,0.584654983804,0.811023941941
1501822124071386098,,8392,,1501822124,71386098,"""map""",,,1294.58940049,-1777.42194271,-5.60776240096,,0.0084720384442,0.0186166961411,0.58465380333,0.811025014067
1501822124076390981,,8457,,1501822124,76390981,"""map""",,,1294.58969072,-1777.42038834,-5.60784112613,,0.00847377142051,0.0186094883347,0.584653339827,0.811025495512
1501822124081368923,,8478,,1501822124,81368923,"""map""",,,1294.58998534,-1777.41883323,-5.60792183227,,0.00847391923001,0.0186011648921,0.584652933776,0.811025977626
1501822124086374044,,8545,,1501822124,86374044,"""map""",,,1294.59028366,-1777.41726015,-5.60800346617,,0.00847482371264,0.0185934001303,0.584651516357,0.811027168014
1501822124091378927,,8567,,1501822124,91378927,"""map""",,,1294.59058708,-1777.41567768,-5.60808531427,,0.00847696034164,0.0185835127948,0.584651068649,0.811027695041
1501822124096384048,,8631,,1501822124,96384048,"""map""",,,1294.59089317,-1777.41408668,-5.60816658057,,0.00847690969375,0.0185729647019,0.584651084545,0.811027925737
1501822124101388931,,8652,,1501822124,101388931,"""map""",,,1294.59120066,-1777.41248394,-5.608247548,,0.00847978021343,0.0185632975013,0.584650613207,0.811028456832
1501822124106394052,,8718,,1501822124,106394052,"""map""",,,1294.59151347,-1777.41087265,-5.6083292218,,0.00848165332793,0.0185520601429,0.584649399932,0.811029568993
1501822124111378908,,8738,,1501822124,111378908,"""map""",,,1294.59182752,-1777.40925863,-5.60841163746,,0.00848226298032,0.0185422679128,0.584649585437,0.811029652827
1501822124116384029,,8804,,1501822124,116384029,"""map""",,,1294.59214653,-1777.40762687,-5.60849636131,,0.00848305644743,0.0185326154854,0.584649370679,0.811030019963
1501822124121381044,,8826,,1501822124,121381044,"""map""",,,1294.5924686,-1777.40598851,-5.60858239357,,0.00848418697731,0.0185237773449,0.584649727939,0.811029952508
1501822124126385927,,8890,,1501822124,126385927,"""map""",,,1294.59279593,-1777.40433746,-5.6086692314,,0.00848632276542,0.0185126778614,0.584650275946,0.811029788553
1501822124131370067,,8908,,1501822124,131370067,"""map""",,,1294.59312495,-1777.40268488,-5.60875575709,,0.00848809178621,0.0185025109107,0.584650628222,0.811029748103
1501822124136374950,,8974,,1501822124,136374950,"""map""",,,1294.59345965,-1777.40101364,-5.60884297579,,0.00848814389445,0.0184905533195,0.584650654978,0.811030000977
1501822124141380071,,8997,,1501822124,141380071,"""map""",,,1294.59379561,-1777.39933118,-5.60893037897,,0.00848876146928,0.0184769295883,0.584650288878,0.811030568916
1501822124146384954,,9061,,1501822124,146384954,"""map""",,,1294.59413417,-1777.39763953,-5.60901816356,,0.00849059653956,0.0184641418722,0.584650665836,0.811030569198
1501822124151381969,,9081,,1501822124,151381969,"""map""",,,1294.59447647,-1777.39594015,-5.60910781249,,0.00849158010731,0.0184534169213,0.584651242984,0.811030386945
1501822124156387090,,9146,,1501822124,156387090,"""map""",,,1294.59482357,-1777.39422581,-5.60919980841,,0.0084944053429,0.0184421995295,0.584652165323,0.811029947621
1501822124161375999,,9167,,1501822124,161375999,"""map""",,,1294.595173,-1777.39250751,-5.60929195067,,0.00849576399806,0.0184287957557,0.584651971872,0.811030377525
1501822124166380882,,9217,,1501822124,166380882,"""map""",,,1294.5955253,-1777.39077309,-5.60938350161,,0.00849729125333,0.0184143199874,0.584651981087,0.811030683681
1501822124171377897,,9240,,1501822124,171377897,"""map""",,,1294.59588053,-1777.3890311,-5.60947460844,,0.0084973876512,0.0183976569463,0.584651856997,0.811031150285
1501822124176383018,,9304,,1501822124,176383018,"""map""",,,1294.59623778,-1777.38727543,-5.60956553906,,0.00849752724776,0.0183830780425,0.584652497235,0.811031017871
1501822124181380987,,9328,,1501822124,181380987,"""map""",,,1294.59659882,-1777.38551021,-5.60965737801,,0.00850322270289,0.0183406840514,0.584654251356,0.81103065348
1501822124196393013,,9371,,1501822124,196393013,"""map""",,,1294.59770654,-1777.38014658,-5.6099392548,,0.00850580724026,0.0183263699971,0.58465383431,0.811031250589
1501822124201384067,,9386,,1501822124,201384067,"""map""",,,1294.59808208,-1777.3783422,-5.61003217688,,0.00850675567205,0.0183097293926,0.584653094329,0.811032149923
1501822124206388950,,9452,,1501822124,206388950,"""map""",,,1294.5984598,-1777.376522,-5.61012438188,,0.00850605172174,0.018293381739,0.584653382422,0.811032318525
1501822124211394071,,9473,,1501822124,211394071,"""map""",,,1294.59884033,-1777.37468936,-5.61021739689,,0.0085081805672,0.0182793241287,0.584653565752,0.811032480994
1501822124216398954,,9538,,1501822124,216398954,"""map""",,,1294.59922657,-1777.37284583,-5.61031037958,,0.00851149947226,0.0182673154217,0.584652710452,0.811033333301
1501822124221390008,,9560,,1501822124,221390008,"""map""",,,1294.59961709,-1777.37099583,-5.61040310542,,0.00851415550342,0.0182550847557,0.584653843601,0.811032763949
1501822124226394891,,9624,,1501822124,226394891,"""map""",,,1294.60001107,-1777.36912873,-5.61049552408,,0.00851615911082,0.0182412250016,0.584654421635,0.811032638065
1501822124231400012,,9646,,1501822124,231400012,"""map""",,,1294.60040677,-1777.36725132,-5.61058740315,,0.00851869062414,0.0182283191521,0.584655368248,0.811032219255
1501822124236404895,,9705,,1501822124,236404895,"""map""",,,1294.60080544,-1777.36536234,-5.61067934875,,0.00852065878024,0.0182144603129,0.584654963447,0.811032801758
1501822124241390943,,9728,,1501822124,241390943,"""map""",,,1294.60120475,-1777.36346898,-5.61077022548,,0.00852248673786,0.0182016727351,0.584655141985,0.811032940934
1501822124246396064,,9785,,1501822124,246396064,"""map""",,,1294.60160974,-1777.36155595,-5.61086114769,,0.00852349882013,0.0181879887298,0.584656336454,0.811032376221
1501822124251394987,,9802,,1501822124,251394987,"""map""",,,1294.6020164,-1777.35963342,-5.61095144038,,0.00852406553151,0.0181761123389,0.584655754982,0.811033055685
1501822124256400108,,9867,,1501822124,256400108,"""map""",,,1294.6024274,-1777.35769576,-5.61104180982,,0.00852639434421,0.0181654915983,0.584654520138,0.811034159328
1501822124261399030,,9889,,1501822124,261399030,"""map""",,,1294.60284212,-1777.35574988,-5.61113185887,,0.00853117958616,0.0181556692409,0.584654780569,0.811034141209
1501822124266403913,,9952,,1501822124,266403913,"""map""",,,1294.60326133,-1777.35379114,-5.61122246517,,0.00853458828926,0.0181464218968,0.584652713973,0.811035802057
1501822124271382093,,9975,,1501822124,271382093,"""map""",,,1294.60368147,-1777.3518303,-5.61131295771,,0.00853874502189,0.0181373943101,0.584651017126,0.811037183447
1501822124276386976,,10043,,1501822124,276386976,"""map""",,,1294.6041067,-1777.34984736,-5.61140321415,,0.00854293737213,0.0181254075114,0.58465013561,0.811038042729
1501822124281392097,,10069,,1501822124,281392097,"""map""",,,1294.60453276,-1777.34785394,-5.61149222447,,0.00854525776276,0.0181135747487,0.584649699568,0.81103859697
1501822124286396980,,10135,,1501822124,286396980,"""map""",,,1294.60496183,-1777.34584733,-5.61158200645,,0.00854788666634,0.0181025569926,0.584649049768,0.811039283678
1501822124291395902,,10148,,1501822124,291395902,"""map""",,,1294.60539484,-1777.34383087,-5.61167263104,,0.00855106926944,0.018083833735,0.584646596108,0.811041436569
1501822124301400899,,10218,,1501822124,301400899,"""map""",,,1294.60627212,-1777.33975668,-5.61185433863,,0.00855608218934,0.0180753622319,0.584646639469,0.811041541288
1501822124306406021,,10281,,1501822124,306406021,"""map""",,,1294.6067183,-1777.33770256,-5.61194439685,,0.00856226436559,0.0180516012339,0.584645526559,0.8110428075
1501822124316416025,,10360,,1501822124,316416025,"""map""",,,1294.60761389,-1777.33355805,-5.61212249414,,0.00856432141893,0.0180413767772,0.584644491375,0.811043759502
1501822124321417093,,10376,,1501822124,321417093,"""map""",,,1294.60806721,-1777.33146756,-5.61221173278,,0.0085683153714,0.0180322087745,0.584643783715,0.811044431324
1501822124326421976,,10442,,1501822124,326421976,"""map""",,,1294.60852732,-1777.32936443,-5.61230129715,,0.00856878016156,0.0180208688964,0.584642608226,0.811045525811
1501822124331394910,,10467,,1501822124,331394910,"""map""",,,1294.60898564,-1777.32726184,-5.61238947913,,0.00857074417068,0.0180094347276,0.584640013659,0.811047629325
1501822124336400032,,10529,,1501822124,336400032,"""map""",,,1294.60945143,-1777.325135,-5.61247780903,,0.0085730932708,0.0179996864137,0.584639948791,0.811047867661
1501822124341404914,,10550,,1501822124,341404914,"""map""",,,1294.60992127,-1777.32299536,-5.61256648373,,0.0085742558794,0.0179894406485,0.584638348871,0.811049235984
1501822124346410036,,10614,,1501822124,346410036,"""map""",,,1294.61039468,-1777.32084304,-5.61265525876,,0.00857535118639,0.0179776451339,0.584637552994,0.811050059649
1501822124351414918,,10637,,1501822124,351414918,"""map""",,,1294.61087014,-1777.31867834,-5.61274332681,,0.00857737920615,0.0179682944572,0.584636312864,0.81105113935
1501822124356420040,,10701,,1501822124,356420040,"""map""",,,1294.61135064,-1777.31650008,-5.61283124042,,0.00857904945711,0.0179581301533,0.584633910545,0.811053078481
1501822124361407041,,10723,,1501822124,361407041,"""map""",,,1294.61183339,-1777.31431718,-5.61291895222,,0.00858013318284,0.0179466742986,0.584631144152,0.811055314688
1501822124366411924,,10787,,1501822124,366411924,"""map""",,,1294.61232179,-1777.31211364,-5.61300672783,,0.00858213307795,0.0179373244028,0.584629117744,0.811056961052
1501822124371398925,,10810,,1501822124,371398925,"""map""",,,1294.61281454,-1777.30990476,-5.61309401319,,0.0085841846744,0.0179283123875,0.584626889756,0.811058744582
1501822124376404047,,10872,,1501822124,376404047,"""map""",,,1294.61331364,-1777.30767517,-5.6131815836,,0.00858827491756,0.017919820261,0.5846255821,0.811059831535
1501822124381395101,,10892,,1501822124,381395101,"""map""",,,1294.61381744,-1777.3054403,-5.61326871946,,0.0085920862973,0.0179117246025,0.584624278454,0.811060909684
1501822124386399984,,10957,,1501822124,386399984,"""map""",,,1294.61432764,-1777.30318581,-5.61335625937,,0.00859635994131,0.0179012870514,0.584622984525,0.811062027519
1501822124391405105,,11062,,1501822124,391405105,"""map""",,,1294.61484039,-1777.30091974,-5.61344298728,,0.00859995746527,0.0178918400602,0.584622290288,0.811062698248
1501822124396409988,,11064,,1501822124,396409988,"""map""",,,1294.6153563,-1777.29863969,-5.61352932555,,0.00860529539323,0.0178845223024,0.584620935369,0.811063779663
1501822124401384115,,11066,,1501822124,401384115,"""map""",,,1294.61587547,-1777.2963613,-5.61361522804,,0.00861040542433,0.017875853615,0.584619796824,0.811064737205
1501822124406388998,,11102,,1501822124,406388998,"""map""",,,1294.61640086,-1777.29405621,-5.61370037095,,0.0086160144552,0.017866054309,0.584618655038,0.811065716561
1501822124411393880,,11121,,1501822124,411393880,"""map""",,,1294.61692935,-1777.29173878,-5.61378432115,,0.00862423532921,0.0178601520595,0.584617990931,0.81106623787
1501822124416399002,,11186,,1501822124,416399002,"""map""",,,1294.61746583,-1777.28940796,-5.61386844064,,0.00866050172038,0.0178271734873,0.584611796302,0.81107104203
1501822124446403026,,11255,,1501822124,446403026,"""map""",,,1294.6207565,-1777.27513202,-5.6143504881,,0.00866983782559,0.0178226435773,0.584611283532,0.81107141144
1501822124451400995,,11275,,1501822124,451400995,"""map""",,,1294.62131797,-1777.27270555,-5.61442602108,,0.00868170203226,0.0178190550634,0.584608722241,0.811073209523
1501822124456406116,,11342,,1501822124,456406116,"""map""",,,1294.62188638,-1777.27026268,-5.61450012847,,0.00869093644476,0.0178150617198,0.584607616826,0.811073995113
1501822124461410999,,11364,,1501822124,461410999,"""map""",,,1294.62245652,-1777.26780361,-5.61457330576,,0.008702328656,0.0178134758615,0.584606426588,0.811074765694
1501822124466415882,,11428,,1501822124,466415882,"""map""",,,1294.62303253,-1777.26533031,-5.6146447506,,0.00870843790121,0.0178126331417,0.584604789491,0.811075898615
1501822124471419095,,11451,,1501822124,471419095,"""map""",,,1294.62360977,-1777.26283973,-5.61471427025,,0.008717264633,0.0178116591313,0.584601895778,0.811077910899
1501822124476423978,,11514,,1501822124,476423978,"""map""",,,1294.62419268,-1777.26033582,-5.61478166613,,0.00872413393275,0.0178098231281,0.584602017108,0.811077789907
1501822124481429100,,11537,,1501822124,481429100,"""map""",,,1294.62477717,-1777.25781544,-5.61484708248,,0.00872992656303,0.017809038516,0.58460097859,0.811078493341
1501822124486433982,,11602,,1501822124,486433982,"""map""",,,1294.62536519,-1777.25527869,-5.6149110575,,0.00873905996992,0.0178106253676,0.584599035012,0.811079761009
1501822124491409063,,11628,,1501822124,491409063,"""map""",,,1294.62595644,-1777.25274222,-5.61497290754,,0.00874862661567,0.017810744146,0.584596896414,0.811081196693
1501822124496413946,,11686,,1501822124,496413946,"""map""",,,1294.62655461,-1777.25017477,-5.61503276318,,0.00876745014151,0.0178139977976,0.58459358253,0.811083310496
1501822124506423950,,11756,,1501822124,506423950,"""map""",,,1294.62776263,-1777.24498747,-5.61514375478,,0.00878039058192,0.0178182325675,0.584592685029,0.811083724371
1501822124511429071,,11778,,1501822124,511429071,"""map""",,,1294.62837524,-1777.24237012,-5.61519410568,,0.00878907949754,0.0178204872958,0.584590470904,0.811085176564
1501822124516433954,,11837,,1501822124,516433954,"""map""",,,1294.62899149,-1777.23973632,-5.61524159404,,0.00880819469176,0.017827175048,0.584588296645,0.811086389333
1501822124536408901,,11965,,1501822124,536408901,"""map""",,,1294.63148216,-1777.22904586,-5.61541361447,,0.00882331052042,0.0178472959705,0.58458266969,0.811089838129
1501822124541414022,,11986,,1501822124,541414022,"""map""",,,1294.63211233,-1777.22631983,-5.61545215912,,0.00882691172806,0.0178541924351,0.584580243022,0.811091396151
1501822124546418905,,12052,,1501822124,546418905,"""map""",,,1294.6327479,-1777.22357654,-5.61548824287,,0.00883107762029,0.0178602956789,0.584578004495,0.811092829809
1501822124551424026,,12072,,1501822124,551424026,"""map""",,,1294.63338787,-1777.22081603,-5.61552270908,,0.00883439916581,0.0178625450253,0.584575827018,0.81109431347
1501822124556428909,,12139,,1501822124,556428909,"""map""",,,1294.63403014,-1777.21803889,-5.61555628774,,0.00883883173601,0.0178665066744,0.584572027434,0.811096916363
1501822124561434030,,12162,,1501822124,561434030,"""map""",,,1294.63467936,-1777.21524447,-5.61558974373,,0.0088471153351,0.0178713688362,0.584569289365,0.811098692304
1501822124566438913,,12225,,1501822124,566438913,"""map""",,,1294.63533661,-1777.21243514,-5.61562272899,,0.00885336281254,0.017877117129,0.584568568437,0.811099017041
1501822124571444988,,12246,,1501822124,571444988,"""map""",,,1294.63600067,-1777.20960675,-5.61565624629,,0.00885596785012,0.0178796786477,0.584569162729,0.811098503828
1501822124576450109,,12311,,1501822124,576450109,"""map""",,,1294.63666819,-1777.20676183,-5.61568878745,,0.00885797403901,0.017885120137,0.5845681727,0.811099075477
1501822124581404924,,12331,,1501822124,581404924,"""map""",,,1294.63733718,-1777.20392801,-5.61572108557,,0.00886122095929,0.0178917361794,0.584566939114,0.811099783155
1501822124586410045,,12396,,1501822124,586410045,"""map""",,,1294.63802077,-1777.20104943,-5.61575360411,,0.00886415310338,0.0178966646373,0.584565140461,0.811100938689
1501822124591404914,,12417,,1501822124,591404914,"""map""",,,1294.6387086,-1777.19815984,-5.61578607419,,0.00886587256016,0.0179033756754,0.584564539907,0.811101204614
1501822124596410036,,12480,,1501822124,596410036,"""map""",,,1294.63940437,-1777.19524479,-5.61581993577,,0.00886727021275,0.0179113576021,0.584563346159,0.811101873451
1501822124601408958,,12503,,1501822124,601408958,"""map""",,,1294.64010594,-1777.19231486,-5.61585456521,,0.00887169121557,0.0179196835727,0.584562259099,0.81110242465
1501822124606414079,,12563,,1501822124,606414079,"""map""",,,1294.64081698,-1777.18936588,-5.61588972887,,0.00887721091275,0.0179260843038,0.58456233935,0.811102164984
1501822124611418962,,12585,,1501822124,611418962,"""map""",,,1294.64153461,-1777.18640156,-5.61592534628,,0.008884968315,0.0179322710718,0.584562750866,0.811101646708
1501822124616424083,,12650,,1501822124,616424083,"""map""",,,1294.64225987,-1777.18342132,-5.61596193113,,0.00889663816917,0.0179400357896,0.584562641397,0.811101425981
1501822124621403932,,12670,,1501822124,621403932,"""map""",,,1294.64299078,-1777.18044074,-5.61599927981,,0.00890914453715,0.0179495692395,0.584562687584,0.811101044502
1501822124626409053,,12734,,1501822124,626409053,"""map""",,,1294.64373394,-1777.1774273,-5.6160377429,,0.00892181756129,0.0179568179029,0.58456393113,0.811099848529
1501822124631407022,,12757,,1501822124,631407022,"""map""",,,1294.64448215,-1777.17440145,-5.61607625729,,0.00893353657658,0.0179645806724,0.584565197065,0.811098635275
1501822124636411905,,12822,,1501822124,636411905,"""map""",,,1294.64523788,-1777.17135297,-5.61611432675,,0.00898910214305,0.018003513409,0.584570327417,0.811093460614
1501822124656407117,,12888,,1501822124,656407117,"""map""",,,1294.6483315,-1777.15900836,-5.61626401948,,0.00900162868751,0.0180139187816,0.584571544142,0.811092213741
1501822124661412000,,12911,,1501822124,661412000,"""map""",,,1294.64912066,-1777.15587454,-5.61630011553,,0.00901196053531,0.0180236636472,0.584573027048,0.811090813759
1501822124666416883,,12974,,1501822124,666416883,"""map""",,,1294.64991546,-1777.15272232,-5.61633463423,,0.00902128507832,0.0180323718303,0.584575729202,0.811088569029
1501822124671401023,,12995,,1501822124,671401023,"""map""",,,1294.65071152,-1777.1495652,-5.61636556194,,0.00903438413164,0.0180440691493,0.584576916628,0.811087307272
1501822124676405906,,13045,,1501822124,676405906,"""map""",,,1294.65151952,-1777.14637803,-5.61639272486,,0.00904847476397,0.0180585491359,0.584577655233,0.811086295599
1501822124681411027,,13065,,1501822124,681411027,"""map""",,,1294.65233539,-1777.14317256,-5.61641632457,,0.00906263593454,0.0180700678436,0.584580190382,0.811084053777
1501822124686415910,,13131,,1501822124,686415910,"""map""",,,1294.65315546,-1777.13995071,-5.61643602686,,0.0090719033483,0.0180766929759,0.584581733061,0.811082690675
1501822124691409111,,13152,,1501822124,691409111,"""map""",,,1294.65397464,-1777.13671834,-5.61645208635,,0.00907740717231,0.0180848397691,0.584582583147,0.811081834793
1501822124696413993,,13216,,1501822124,696413993,"""map""",,,1294.65480197,-1777.13345795,-5.61646720468,,0.0090778033902,0.0180926575962,0.584583387396,0.811081076347
1501822124701416015,,13240,,1501822124,701416015,"""map""",,,1294.6556346,-1777.13017956,-5.61648152889,,0.00906515754476,0.0181088970362,0.584585969226,0.811078994519
1501822124711419105,,13311,,1501822124,711419105,"""map""",,,1294.65731978,-1777.12356342,-5.61650649474,,0.00905524055882,0.0181276229741,0.584589431699,0.811076191396
1501822124721429109,,13375,,1501822124,721429109,"""map""",,,1294.65903555,-1777.1168678,-5.61652085431,,0.00905304284482,0.0181350338379,0.58459267541,0.811073712322
1501822124726433992,,13439,,1501822124,726433992,"""map""",,,1294.65990145,-1777.11349183,-5.61652214684,,0.00905177018058,0.0181398464019,0.584595523666,0.811071565979
1501822124731416940,,13461,,1501822124,731416940,"""map""",,,1294.66076736,-1777.11011183,-5.61651918021,,0.00905230289924,0.0181450403564,0.584598315947,0.811069431254
1501822124736422061,,13527,,1501822124,736422061,"""map""",,,1294.66164408,-1777.10669845,-5.61651375642,,0.00905075212439,0.0181493767332,0.584600586583,0.811067714915
1501822124741419076,,13549,,1501822124,741419076,"""map""",,,1294.66252567,-1777.10327205,-5.61650773291,,0.00904382903829,0.0181537798662,0.584603208958,0.811065803439
1501822124746423959,,13614,,1501822124,746423959,"""map""",,,1294.66341435,-1777.09982034,-5.61650111794,,0.00901860325389,0.0181685595892,0.584606758618,0.811063194835
1501822124756433010,,13695,,1501822124,756433010,"""map""",,,1294.66521756,-1777.09286046,-5.61648855725,,0.00900366011176,0.0181780087295,0.584608777677,0.81106169381
1501822124766424894,,13774,,1501822124,766424894,"""map""",,,1294.66705223,-1777.08583525,-5.61647598,,0.00893497354712,0.0182274882472,0.584627733156,0.811047679576
1501822124796425104,,13890,,1501822124,796425104,"""map""",,,1294.67274733,-1777.06426431,-5.61640500896,,0.00892643622408,0.0182316497707,0.584630207204,0.811045896672
1501822124801419019,,13912,,1501822124,801419019,"""map""",,,1294.67372156,-1777.06060389,-5.6163877803,,0.00891715647982,0.0182373369406,0.584633671497,0.811043373694
1501822124806423902,,13977,,1501822124,806423902,"""map""",,,1294.67470415,-1777.05691373,-5.61636876966,,0.00890839860793,0.0182481489303,0.58463648051,0.811041201883
1501822124811414957,,13997,,1501822124,811414957,"""map""",,,1294.67569369,-1777.05321157,-5.6163485561,,0.00889866682068,0.0182577302479,0.584637559085,0.811040315596
1501822124816420078,,14064,,1501822124,816420078,"""map""",,,1294.67669084,-1777.04947884,-5.61632589688,,0.00888687139256,0.0182681984782,0.584639869028,0.811038544081
1501822124821412086,,14086,,1501822124,821412086,"""map""",,,1294.67768952,-1777.04573313,-5.61630049355,,0.00887502434563,0.0182783287477,0.584642380346,0.811036635267
1501822124826416969,,14151,,1501822124,826416969,"""map""",,,1294.6786951,-1777.04195722,-5.61627282721,,0.00886446439047,0.0182873535605,0.584642504344,0.811036457926
1501822124831422090,,14172,,1501822124,831422090,"""map""",,,1294.67970774,-1777.03816268,-5.61624351851,,0.0088516201977,0.0182959140678,0.584644272776,0.811035130348
1501822124836426973,,14235,,1501822124,836426973,"""map""",,,1294.68072568,-1777.03434632,-5.61621200591,,0.00883761691065,0.0183018911938,0.584645706575,0.811034114628
1501822124841420888,,14259,,1501822124,841420888,"""map""",,,1294.68174577,-1777.03051772,-5.61617608016,,0.00882337212304,0.0183086032309,0.58464654982,0.811033510366
1501822124846426010,,14322,,1501822124,846426010,"""map""",,,1294.68277553,-1777.02665901,-5.61613589802,,0.00880897942256,0.0183172593824,0.584648361669,0.811032165261
1501822124851418972,,14344,,1501822124,851418972,"""map""",,,1294.68381093,-1777.02278704,-5.61609215453,,0.00878903788219,0.0183228836239,0.58465095417,0.811030385705
1501822124856424093,,14408,,1501822124,856424093,"""map""",,,1294.68484958,-1777.0188819,-5.61604307621,,0.00876686843979,0.0183302734505,0.584650839295,0.811030541475
1501822124861418008,,14431,,1501822124,861418008,"""map""",,,1294.68589018,-1777.014962,-5.61599037444,,0.00874662711416,0.0183383802762,0.584652431708,0.811029428826
1501822124871419906,,14510,,1501822124,871419906,"""map""",,,1294.68799057,-1777.00704921,-5.61587578448,,0.00869981451587,0.0183558537831,0.584652638708,0.811029387822
1501822124876425027,,14572,,1501822124,876425027,"""map""",,,1294.68904836,-1777.00305618,-5.61581432094,,0.0086784095355,0.0183658875395,0.584651293736,0.811030359553
1501822124881417036,,14593,,1501822124,881417036,"""map""",,,1294.69011298,-1776.99905456,-5.61575031792,,0.00865627779216,0.0183757009292,0.584650168394,0.811031185015
1501822124886421918,,14660,,1501822124,886421918,"""map""",,,1294.69118882,-1776.99502107,-5.61568399017,,0.00863035752428,0.0183833988471,0.584650747286,0.811030869495
1501822124891427040,,14679,,1501822124,891427040,"""map""",,,1294.69226997,-1776.99096428,-5.61561510568,,0.00860456955346,0.0183908987218,0.584651127183,0.81103069961
1501822124896431922,,14744,,1501822124,896431922,"""map""",,,1294.69335898,-1776.98688623,-5.61554377732,,0.008579207827,0.0184019742218,0.584650868108,0.811030903824
1501822124901422023,,14764,,1501822124,901422023,"""map""",,,1294.69445454,-1776.98279778,-5.61547199062,,0.00845936848113,0.0184509319972,0.58465179106,0.811030385006
1501822124926433086,,14817,,1501822124,926433086,"""map""",,,1294.700028,-1776.96199351,-5.61509776713,,0.0084357828535,0.0184632625854,0.58465126855,0.81103072672
1501822124931437969,,14839,,1501822124,931437969,"""map""",,,1294.70116642,-1776.95776663,-5.61502237887,,0.00841380441871,0.018475835201,0.584650696768,0.811031080895
1501822124936443090,,14904,,1501822124,936443090,"""map""",,,1294.70231429,-1776.95352007,-5.61494745632,,0.00838977035726,0.0184884221264,0.58465097069,0.811030845574
1501822124941442012,,14924,,1501822124,941442012,"""map""",,,1294.70346752,-1776.94925611,-5.61487390147,,0.00836617551544,0.018501287029,0.58465240899,0.811029759101
1501822124946446895,,14981,,1501822124,946446895,"""map""",,,1294.70462776,-1776.94496535,-5.61480111725,,0.00834471678008,0.0185165599263,0.584653170155,0.811029082918
1501822124951421022,,15003,,1501822124,951421022,"""map""",,,1294.70578862,-1776.94068072,-5.61473032052,,0.0083211745468,0.0185280162996,0.584653243712,0.811029010137
1501822124956425905,,15067,,1501822124,956425905,"""map""",,,1294.70695982,-1776.93634879,-5.61465988276,,0.00829573926014,0.0185366688969,0.584653007152,0.81102924352
1501822124961417913,,15090,,1501822124,961417913,"""map""",,,1294.70813188,-1776.93200691,-5.61459080683,,0.00826910126845,0.0185436118112,0.584651839025,0.811030198914
1501822124966423034,,15154,,1501822124,966423034,"""map""",,,1294.70931262,-1776.92763265,-5.61452309242,,0.00824618247918,0.0185575711549,0.584652260474,0.811029809163
1501822124971427917,,15176,,1501822124,971427917,"""map""",,,1294.71050722,-1776.92323665,-5.61445876645,,0.00822222908188,0.0185696220579,0.584652534616,0.811029578901
1501822124976433038,,15240,,1501822124,976433038,"""map""",,,1294.71170866,-1776.91881992,-5.61439570095,,0.00819831922669,0.0185807990271,0.584653406431,0.811028936487
1501822124981437921,,15262,,1501822124,981437921,"""map""",,,1294.71291636,-1776.9143831,-5.61433369445,,0.00817592835047,0.0185906689738,0.584654444548,0.811028187977
1501822124986443042,,15325,,1501822124,986443042,"""map""",,,1294.71412941,-1776.90992761,-5.61427265484,,0.00815767622733,0.018602255975,0.584655738403,0.811027173369
1501822124991424083,,15348,,1501822124,991424083,"""map""",,,1294.7153459,-1776.90547483,-5.61421437273,,0.00813693658797,0.01861062076,0.584656744273,0.811026464694
1501822124996428966,,15415,,1501822124,996428966,"""map""",,,1294.7165715,-1776.90097963,-5.61415743657,,0.00811828041874,0.0186177588748,0.584658686441,0.811025087742
1501822125001425981,,15434,,1501822125,1425981,"""map""",,,1294.71780107,-1776.89647299,-5.61410268543,,0.00809848789024,0.0186276947226,0.584659057614,0.8110247899
1501822125006431102,,15498,,1501822125,6431102,"""map""",,,1294.71904163,-1776.89193694,-5.61405107763,,0.00805024771449,0.0186440496633,0.584663626646,0.811021600576
1501822125016441106,,15537,,1501822125,16441106,"""map""",,,1294.72154047,-1776.88280074,-5.61395439546,,0.00796536132197,0.0186730135665,0.5846744343,0.811013981051
1501822125036439895,,15565,,1501822125,36439895,"""map""",,,1294.72661421,-1776.86431098,-5.61378895086,,0.00794896431887,0.01868081165,0.584677875968,0.811011481174
1501822125041435003,,15585,,1501822125,41435003,"""map""",,,1294.72789653,-1776.85964407,-5.61375497542,,0.00793274429189,0.0186878758695,0.584680139935,0.811009845087
1501822125046439886,,15634,,1501822125,46439886,"""map""",,,1294.72918751,-1776.8549491,-5.61372349433,,0.00790144372323,0.0187031793667,0.584681671035,0.81100869405
1501822125056441068,,15713,,1501822125,56441068,"""map""",,,1294.73178657,-1776.84551032,-5.61366895574,,0.00788645667643,0.0187093332197,0.584683908899,0.811007084633
1501822125061434984,,15731,,1501822125,61434984,"""map""",,,1294.7330929,-1776.84076888,-5.61364630567,,0.00786805016889,0.0187119050349,0.584685890304,0.811005775612
