rosbagTimestamp,header,seq,stamp,secs,nsecs,frame_id,vector,x,y,z
1501822123031317949,,10,,1501822123,31317949,"""map""",,-0.0211074878756,0.0507603759548,0.000993153403053
1501822123036323070,,74,,1501822123,36323070,"""map""",,-0.0209930019642,0.0525056008816,0.00139311130758
1501822123041313886,,92,,1501822123,41313886,"""map""",,-0.0207833259791,0.0535963959788,0.00187118595014
1501822123046319007,,162,,1501822123,46319007,"""map""",,-0.020543869018,0.0542500100728,0.002043524963
1501822123051310062,,183,,1501822123,51310062,"""map""",,-0.0200469482007,0.0539909078287,0.00209502243754
1501822123056314945,,249,,1501822123,56314945,"""map""",,-0.0200386087516,0.0542398589716,0.00190954929258
1501822123061312913,,271,,1501822123,61312913,"""map""",,-0.0191563687505,0.0542798672415,0.0015048767424
1501822123066318035,,335,,1501822123,66318035,"""map""",,-0.0186046808558,0.0547613791047,0.00129132584051
1501822123071316003,,357,,1501822123,71316003,"""map""",,-0.0182461380794,0.0557644203057,0.00154843418863
1501822123076320886,,421,,1501822123,76320886,"""map""",,-0.0183583644075,0.0567504116994,0.00204664090876
1501822123086330890,,496,,1501822123,86330890,"""map""",,-0.0179207238755,0.059352263697,0.00210239065041
1501822123091317892,,519,,1501822123,91317892,"""map""",,-0.0176722345412,0.0599701883854,0.00187615873906
1501822123096323013,,583,,1501822123,96323013,"""map""",,-0.0171053536685,0.0603304865713,0.00147668923703
1501822123101306915,,606,,1501822123,101306915,"""map""",,-0.0166879268041,0.0604938432897,0.000964917741109
1501822123106312036,,670,,1501822123,106312036,"""map""",,-0.0164158302639,0.0604663158693,0.000550978758128
1501822123111316919,,692,,1501822123,111316919,"""map""",,-0.0157874029745,0.060561457353,0.000155374513368
1501822123116322040,,728,,1501822123,116322040,"""map""",,-0.0157148350799,0.0603864635001,0.000149527703487
1501822123121309995,,750,,1501822123,121309995,"""map""",,-0.0160456989664,0.0609784363232,4.87696692861e-05
1501822123126315116,,814,,1501822123,126315116,"""map""",,-0.0160627926257,0.0613187426046,-5.27558494885e-05
1501822123131309986,,836,,1501822123,131309986,"""map""",,-0.0157958504473,0.0625526376574,-0.000530543698371
1501822123136315107,,901,,1501822123,136315107,"""map""",,-0.0155178053051,0.0630549498399,-0.000835620320819
1501822123141313076,,922,,1501822123,141313076,"""map""",,-0.014999622902,0.0642731940694,-0.00130819191067
1501822123146317958,,989,,1501822123,146317958,"""map""",,-0.014707349687,0.0653783116655,-0.00164965310844
1501822123151314973,,1010,,1501822123,151314973,"""map""",,-0.0144729198087,0.0659334990677,-0.00165883327419
1501822123156320095,,1076,,1501822123,156320095,"""map""",,-0.0147443017791,0.0662231545677,-0.0015834614918
1501822123181322097,,1113,,1501822123,181322097,"""map""",,-0.0147954624386,0.067310435653,-0.00341107927317
1501822123186326980,,1178,,1501822123,186326980,"""map""",,-0.0143181514944,0.0682870791506,-0.00338290678667
1501822123191324949,,1191,,1501822123,191324949,"""map""",,-0.0144327870496,0.0698081771664,-0.00327871846358
1501822123201319932,,1255,,1501822123,201319932,"""map""",,-0.0144154525476,0.0723800390601,-0.00316179681239
1501822123206325054,,1318,,1501822123,206325054,"""map""",,-0.0140103732217,0.0731000898023,-0.00334757760576
1501822123211316108,,1341,,1501822123,211316108,"""map""",,-0.0139164319189,0.0733226972263,-0.00353537216669
1501822123216320991,,1403,,1501822123,216320991,"""map""",,-0.0131234007972,0.0737021711138,-0.00391275737329
1501822123226330995,,1462,,1501822123,226330995,"""map""",,-0.0134804632303,0.0741091892824,-0.00381736505399
1501822123231336116,,1484,,1501822123,231336116,"""map""",,-0.0134916845762,0.0746238861789,-0.00359439574171
1501822123241336107,,1554,,1501822123,241336107,"""map""",,-0.0134883136665,0.0766670040352,-0.00343853212332
1501822123246340990,,1609,,1501822123,246340990,"""map""",,-0.013847423918,0.0775985364824,-0.00336795393292
1501822123251327991,,1627,,1501822123,251327991,"""map""",,-0.0132764156709,0.0786173332961,-0.00368755750462
1501822123256333112,,1693,,1501822123,256333112,"""map""",,-0.0134306530635,0.0794379540096,-0.00381672565054
1501822123261332988,,1712,,1501822123,261332988,"""map""",,-0.0127552233871,0.0801144822555,-0.00391527303361
1501822123266338109,,1779,,1501822123,266338109,"""map""",,-0.0120531582236,0.0807142702282,-0.00381459908922
1501822123271338939,,1799,,1501822123,271338939,"""map""",,-0.0120352337456,0.0815230733486,-0.00348440370266
1501822123276344060,,1865,,1501822123,276344060,"""map""",,-0.0120666943412,0.0816940699304,-0.0029730071293
1501822123281330108,,1885,,1501822123,281330108,"""map""",,-0.0117318470317,0.0817880211235,-0.00270998795977
1501822123286334991,,1951,,1501822123,286334991,"""map""",,-0.0115247838163,0.0825611894617,-0.00270763827257
1501822123291340112,,1973,,1501822123,291340112,"""map""",,-0.0114693768746,0.0830026034464,-0.00262852211856
1501822123296344995,,2020,,1501822123,296344995,"""map""",,-0.0112584196358,0.0838829434285,-0.00260285538978
1501822123301337957,,2043,,1501822123,301337957,"""map""",,-0.0114209383443,0.0853944677627,-0.00244415335311
1501822123306343078,,2107,,1501822123,306343078,"""map""",,-0.0116333676425,0.0869912701429,-0.00224051130014
1501822123311328887,,2129,,1501822123,311328887,"""map""",,-0.0115706769292,0.0882873925358,-0.00197160630512
1501822123316334009,,2185,,1501822123,316334009,"""map""",,-0.0111857302709,0.0888741433918,-0.00174533301368
1501822123321332931,,2208,,1501822123,321332931,"""map""",,-0.0108634247332,0.0893993015693,-0.00166150647497
1501822123326338052,,2271,,1501822123,326338052,"""map""",,-0.0105580236793,0.0898037790438,-0.00180208632323
1501822123331326961,,2294,,1501822123,331326961,"""map""",,-0.0100119921651,0.0899744437464,-0.0018942436073
1501822123336332082,,2357,,1501822123,336332082,"""map""",,-0.00966885802835,0.0909045161404,-0.00200080933419
1501822123341336965,,2380,,1501822123,341336965,"""map""",,-0.00899672103605,0.0920540544323,-0.00191993016556
1501822123346342086,,2444,,1501822123,346342086,"""map""",,-0.00898011657341,0.0931154196162,-0.00143752886476
1501822123351334095,,2466,,1501822123,351334095,"""map""",,-0.00881491874642,0.0944812727031,-0.000902908516078
1501822123356338977,,2531,,1501822123,356338977,"""map""",,-0.00889072769529,0.0959901365548,-0.00056763195916
1501822123361336946,,2553,,1501822123,361336946,"""map""",,-0.00864947561069,0.0970194548572,-0.000466482706469
1501822123366342067,,2618,,1501822123,366342067,"""map""",,-0.00850387063358,0.0984493313129,-0.000769879327062
1501822123371330976,,2639,,1501822123,371330976,"""map""",,-0.00791795164222,0.0994278076295,-0.00114997401708
1501822123376336097,,2705,,1501822123,376336097,"""map""",,-0.00761318736787,0.100377710906,-0.00129734377454
1501822123381336927,,2726,,1501822123,381336927,"""map""",,-0.00713406059444,0.101174335228,-0.00133070524788
1501822123386342048,,2792,,1501822123,386342048,"""map""",,-0.0067541919943,0.101901103848,-0.00116688495392
1501822123391346931,,2814,,1501822123,391346931,"""map""",,-0.00648630720537,0.102729180612,-0.000903526818414
1501822123396352052,,2878,,1501822123,396352052,"""map""",,-0.00618113799272,0.1039579468,-0.000752789087067
1501822123401329994,,2898,,1501822123,401329994,"""map""",,-0.00561972630202,0.105253654334,-0.000905009346558
1501822123416344881,,2981,,1501822123,416344881,"""map""",,-0.00484912987597,0.108835804555,-0.00135299921364
1501822123421331882,,3000,,1501822123,421331882,"""map""",,-0.00421259136522,0.109912676718,-0.00142014977569
1501822123426337003,,3063,,1501822123,426337003,"""map""",,-0.0042483386967,0.111241611957,-0.00137643675067
1501822123431341886,,3086,,1501822123,431341886,"""map""",,-0.00323181441689,0.112553634884,-0.00146899364561
1501822123436347007,,3146,,1501822123,436347007,"""map""",,-0.00304003701167,0.113812686035,-0.00153651298205
1501822123441340923,,3169,,1501822123,441340923,"""map""",,-0.00303250394728,0.115262697837,-0.00163301169041
1501822123446346044,,3233,,1501822123,446346044,"""map""",,-0.00192890369305,0.116048202922,-0.00182885454562
1501822123451340913,,3256,,1501822123,451340913,"""map""",,-0.00171825655905,0.117027707924,-0.00196055415362
1501822123456346035,,3320,,1501822123,456346035,"""map""",,-0.00143340254833,0.117771017324,-0.00192292717112
1501822123461350917,,3342,,1501822123,461350917,"""map""",,-0.00140355421306,0.118655893057,-0.00204853121143
1501822123466356039,,3406,,1501822123,466356039,"""map""",,-0.00124829768741,0.119783603943,-0.00233713221575
1501822123471330881,,3428,,1501822123,471330881,"""map""",,-0.00103830522644,0.121172639596,-0.00254317130243
1501822123476336002,,3492,,1501822123,476336002,"""map""",,-0.000293326177861,0.122650958952,-0.00279056155573
1501822123481334924,,3514,,1501822123,481334924,"""map""",,-2.10626815322e-05,0.12417040008,-0.00282500932585
1501822123486340045,,3579,,1501822123,486340045,"""map""",,0.000507185922269,0.125237981188,-0.00285300271712
1501822123491341114,,3600,,1501822123,491341114,"""map""",,0.000487431899198,0.126388570026,-0.00300772040728
1501822123496345996,,3667,,1501822123,496345996,"""map""",,0.00114311108352,0.127180292755,-0.00324675481825
1501822123501351118,,3687,,1501822123,501351118,"""map""",,0.00159698575871,0.127965487295,-0.00347268401814
1501822123506356000,,3754,,1501822123,506356000,"""map""",,0.0023731353288,0.129144635767,-0.00367498148617
1501822123511360883,,3774,,1501822123,511360883,"""map""",,0.00282731934806,0.130789345075,-0.00385836702731
1501822123516366004,,3840,,1501822123,516366004,"""map""",,0.00370057988655,0.131776095934,-0.00384547582021
1501822123521370887,,3861,,1501822123,521370887,"""map""",,0.00415314770619,0.133384307054,-0.00379417495253
1501822123526376008,,3926,,1501822123,526376008,"""map""",,0.0043309322985,0.134495716657,-0.00365929379719
1501822123536345005,,4003,,1501822123,536345005,"""map""",,0.00527497067079,0.137205141411,-0.00393097949839
1501822123541349887,,4026,,1501822123,541349887,"""map""",,0.00616316385882,0.138495874899,-0.00425879702536
1501822123546355009,,4090,,1501822123,546355009,"""map""",,0.00606792220721,0.139877358622,-0.00441125923543
1501822123551359891,,4112,,1501822123,551359891,"""map""",,0.00714420416739,0.141097102068,-0.00461054484819
1501822123556365013,,4165,,1501822123,556365013,"""map""",,0.00733967187705,0.142012497773,-0.0045532757322
1501822123561369895,,4187,,1501822123,561369895,"""map""",,0.00815153097275,0.143021728031,-0.0045593998919
1501822123566375017,,4251,,1501822123,566375017,"""map""",,0.00825756181078,0.143964387091,-0.00453986664031
1501822123571379899,,4273,,1501822123,571379899,"""map""",,0.00886580463581,0.145191783757,-0.0047229364614
1501822123586390972,,4330,,1501822123,586390972,"""map""",,0.0111467487032,0.15005092366,-0.00542593228309
1501822123591396093,,4352,,1501822123,591396093,"""map""",,0.0114969892196,0.151646388688,-0.00538119297566
1501822123596400976,,4417,,1501822123,596400976,"""map""",,0.011989320081,0.152726895827,-0.00531864721068
1501822123601402997,,4438,,1501822123,601402997,"""map""",,0.0122627723922,0.153713571849,-0.00535095611606
1501822123606408119,,4504,,1501822123,606408119,"""map""",,0.0132311632832,0.154736679254,-0.00573200407607
1501822123611346006,,4525,,1501822123,611346006,"""map""",,0.0120232288425,0.156872218439,-0.00594192119847
1501822123616350889,,4591,,1501822123,616350889,"""map""",,0.0125333537094,0.158233718045,-0.0062901969869
1501822123621347904,,4612,,1501822123,621347904,"""map""",,0.0133151387539,0.158964409055,-0.00647097229114
1501822123626353025,,4678,,1501822123,626353025,"""map""",,0.0133344104604,0.160575328204,-0.00637765775516
1501822123631357908,,4698,,1501822123,631357908,"""map""",,0.0137624423611,0.161943734207,-0.00635955904374
1501822123636363029,,4764,,1501822123,636363029,"""map""",,0.0140643307757,0.163448493206,-0.00640277861916
1501822123641346931,,4784,,1501822123,641346931,"""map""",,0.014058004969,0.165284374804,-0.00647330207252
1501822123646352052,,4850,,1501822123,646352052,"""map""",,0.0152519555881,0.166965870233,-0.00675850849181
1501822123651346921,,4871,,1501822123,651346921,"""map""",,0.0152133100151,0.168413234831,-0.00678416866999
1501822123656352043,,4937,,1501822123,656352043,"""map""",,0.0156390022783,0.169810411332,-0.00682218671557
1501822123661343097,,4959,,1501822123,661343097,"""map""",,0.0157903252371,0.170953548535,-0.0067177463787
1501822123666347980,,5024,,1501822123,666347980,"""map""",,0.0159547841187,0.172420841015,-0.00679516811305
1501822123671353101,,5046,,1501822123,671353101,"""map""",,0.0160850997309,0.17360185087,-0.00671793077866
1501822123676357984,,5109,,1501822123,676357984,"""map""",,0.016384961103,0.174998595427,-0.00677867097636
1501822123681356906,,5132,,1501822123,681356906,"""map""",,0.0168738818554,0.176850192685,-0.00696364206736
1501822123686362028,,5195,,1501822123,686362028,"""map""",,0.0169599201519,0.178441007855,-0.00700305384072
1501822123691345930,,5218,,1501822123,691345930,"""map""",,0.0169285251482,0.180494029827,-0.00690315558976
1501822123696351051,,5282,,1501822123,696351051,"""map""",,0.0179050099976,0.181912137703,-0.00684042485299
1501822123701350927,,5304,,1501822123,701350927,"""map""",,0.0175469506644,0.183722777813,-0.00673788388329
1501822123706356048,,5369,,1501822123,706356048,"""map""",,0.018101450532,0.185471293106,-0.00677997935475
1501822123711355924,,5391,,1501822123,711355924,"""map""",,0.0184596645252,0.18713913275,-0.00678919376574
1501822123716361045,,5457,,1501822123,716361045,"""map""",,0.019204331419,0.188604344236,-0.00688144582833
1501822123721354007,,5477,,1501822123,721354007,"""map""",,0.0190874688958,0.189723351067,-0.00675289195967
1501822123726358890,,5543,,1501822123,726358890,"""map""",,0.0197746720354,0.190942335406,-0.00690466105539
1501822123731359004,,5563,,1501822123,731359004,"""map""",,0.0195190754583,0.192252864964,-0.00692209699686
1501822123736363887,,5629,,1501822123,736363887,"""map""",,0.0200630823176,0.193561057083,-0.00707663254752
1501822123741369009,,5650,,1501822123,741369009,"""map""",,0.0203098172551,0.195256409347,-0.00731378482679
1501822123746373891,,5716,,1501822123,746373891,"""map""",,0.0208922824858,0.197089640727,-0.00746069030574
1501822123751353025,,5736,,1501822123,751353025,"""map""",,0.0214437667453,0.19935077874,-0.00761698924708
1501822123756357908,,5803,,1501822123,756357908,"""map""",,0.022172904779,0.200773616528,-0.00757846243895
1501822123761363029,,5811,,1501822123,761363029,"""map""",,0.0228543897433,0.20253269357,-0.00760882878559
1501822123766367912,,5877,,1501822123,766367912,"""map""",,0.023255106622,0.203791507438,-0.00755286003514
1501822123771373033,,5899,,1501822123,771373033,"""map""",,0.0239863024228,0.205107428884,-0.00772484097262
1501822123776377916,,5962,,1501822123,776377916,"""map""",,0.0243259803278,0.206065265589,-0.00797783340148
1501822123781363010,,5984,,1501822123,781363010,"""map""",,0.024688385751,0.207288829707,-0.00836136047989
1501822123786367893,,6048,,1501822123,786367893,"""map""",,0.025039456276,0.208430607433,-0.00847822081689
1501822123791357040,,6071,,1501822123,791357040,"""map""",,0.0257626164726,0.209660282398,-0.00856410986305
1501822123796361923,,6134,,1501822123,796361923,"""map""",,0.0260756935423,0.211379388692,-0.00848454510615
1501822123801362037,,6157,,1501822123,801362037,"""map""",,0.0267276823145,0.213561297364,-0.00852840619178
1501822123806366920,,6222,,1501822123,806366920,"""map""",,0.0272140355778,0.216052705171,-0.00856611266043
1501822123811364889,,6244,,1501822123,811364889,"""map""",,0.0279915749491,0.218293153435,-0.00863267369067
1501822123816370010,,6308,,1501822123,816370010,"""map""",,0.0290365301975,0.219920134563,-0.00876564071162
1501822123821360111,,6330,,1501822123,821360111,"""map""",,0.0296390563014,0.220994700887,-0.00899455440272
1501822123826364994,,6394,,1501822123,826364994,"""map""",,0.0303063764735,0.222016147573,-0.00940784992777
1501822123831356048,,6416,,1501822123,831356048,"""map""",,0.0307372836967,0.22282226832,-0.00966315138107
1501822123836360931,,6440,,1501822123,836360931,"""map""",,0.0311841631803,0.223735811968,-0.00975477765857
1501822123841363906,,6461,,1501822123,841363906,"""map""",,0.0317925876299,0.225268927018,-0.00979991397665
1501822123846369028,,6486,,1501822123,846369028,"""map""",,0.0326499965077,0.227761824322,-0.00983891016543
1501822123851373910,,6506,,1501822123,851373910,"""map""",,0.033013746979,0.230710472931,-0.0097493245533
1501822123856379032,,6568,,1501822123,856379032,"""map""",,0.0339345915823,0.232959268543,-0.00956109768896
1501822123861365079,,6589,,1501822123,861365079,"""map""",,0.0341729485121,0.234979587039,-0.00951164187095
1501822123866369962,,6655,,1501822123,866369962,"""map""",,0.0339280812822,0.236398586613,-0.00967077954813
1501822123871364116,,6675,,1501822123,871364116,"""map""",,0.0349613045836,0.237087378955,-0.0101936730444
1501822123876368999,,6741,,1501822123,876368999,"""map""",,0.03546185903,0.23803724492,-0.0109550893927
1501822123881359100,,6761,,1501822123,881359100,"""map""",,0.036025661742,0.23935974209,-0.0114949895204
1501822123886363983,,6827,,1501822123,886363983,"""map""",,0.0369391319193,0.240889899487,-0.0117470534925
1501822123891369104,,6849,,1501822123,891369104,"""map""",,0.0369730659261,0.242848348143,-0.0114999795439
1501822123896373987,,6905,,1501822123,896373987,"""map""",,0.037801795746,0.244968169566,-0.0112832937839
1501822123901367902,,6927,,1501822123,901367902,"""map""",,0.0377206231085,0.247168404184,-0.0111471489611
1501822123906373023,,6992,,1501822123,906373023,"""map""",,0.0382162787003,0.249140841284,-0.0113442810058
1501822123911370992,,7015,,1501822123,911370992,"""map""",,0.0389594721619,0.250553758724,-0.0118513695245
1501822123916376113,,7078,,1501822123,916376113,"""map""",,0.0391935990234,0.252165754288,-0.012583098194
1501822123921372890,,7101,,1501822123,921372890,"""map""",,0.0399419955811,0.25316414044,-0.013137042094
1501822123926378011,,7165,,1501822123,926378011,"""map""",,0.0405531859987,0.254958889981,-0.013557265657
1501822123931365966,,7187,,1501822123,931365966,"""map""",,0.0413889705859,0.256430645585,-0.0135255581874
1501822123936371088,,7251,,1501822123,936371088,"""map""",,0.0420680280092,0.258248152703,-0.0132779141197
1501822123941358089,,7273,,1501822123,941358089,"""map""",,0.0423246803676,0.260460767116,-0.0131225611546
1501822123946362972,,7337,,1501822123,946362972,"""map""",,0.042966797752,0.26242619388,-0.0131289008107
1501822123951363086,,7359,,1501822123,951363086,"""map""",,0.0437969478793,0.264062060403,-0.0133881506246
1501822123956367969,,7425,,1501822123,956367969,"""map""",,0.0440632970527,0.265354612141,-0.0136341982605
1501822123961370944,,7446,,1501822123,961370944,"""map""",,0.0447937044163,0.266898603054,-0.0140393796485
1501822123966376066,,7512,,1501822123,966376066,"""map""",,0.0450022605045,0.268848143771,-0.0143519438569
1501822123971380949,,7532,,1501822123,971380949,"""map""",,0.0459268619256,0.270789566221,-0.0143631656558
1501822123976386070,,7598,,1501822123,976386070,"""map""",,0.0464325476556,0.272949993263,-0.014115917123
1501822123981373071,,7619,,1501822123,981373071,"""map""",,0.046583400792,0.27531863586,-0.0138761620207
1501822123986377954,,7685,,1501822123,986377954,"""map""",,0.0475014398318,0.2772858523,-0.0138846326629
1501822123991383075,,7706,,1501822123,991383075,"""map""",,0.0476127806632,0.278736354917,-0.0140533767869
1501822123996388912,,7771,,1501822123,996388912,"""map""",,0.0479246942624,0.28011165614,-0.014376194299
1501822124001374959,,7792,,1501822124,1374959,"""map""",,0.0489726676004,0.281433582339,-0.0148201098107
1501822124006380081,,7858,,1501822124,6380081,"""map""",,0.0494532104432,0.283255877107,-0.0150293636643
1501822124011374950,,7880,,1501822124,11374950,"""map""",,0.0505030970227,0.28533669425,-0.0151268770867
1501822124016380071,,7943,,1501822124,16380071,"""map""",,0.0505220914791,0.287956423894,-0.0149773627572
1501822124021384954,,7966,,1501822124,21384954,"""map""",,0.0508307730874,0.290107030046,-0.0147157396459
1501822124026390075,,8029,,1501822124,26390075,"""map""",,0.0510790027316,0.292049249226,-0.0145815199009
1501822124031367063,,8052,,1501822124,31367063,"""map""",,0.0520401763213,0.29295019228,-0.0147048304054
1501822124036371946,,8115,,1501822124,36371946,"""map""",,0.0524741662004,0.294799380159,-0.0151605752453
1501822124041377067,,8138,,1501822124,41377067,"""map""",,0.0532278166351,0.296980002044,-0.0157501328025
1501822124046381950,,8201,,1501822124,46381950,"""map""",,0.0542277950251,0.298868674934,-0.0160059376577
1501822124051366090,,8224,,1501822124,51366090,"""map""",,0.0550730980963,0.300769246144,-0.015872343737
1501822124056370973,,8288,,1501822124,56370973,"""map""",,0.0554403089769,0.302886959846,-0.015535434933
1501822124061376094,,8311,,1501822124,61376094,"""map""",,0.0556109915598,0.30504634239,-0.0151687918077
1501822124066380977,,8369,,1501822124,66380977,"""map""",,0.0567140419119,0.306562499406,-0.0151233637622
1501822124071386098,,8391,,1501822124,71386098,"""map""",,0.057295533213,0.308809274358,-0.0154195432099
1501822124076390981,,8455,,1501822124,76390981,"""map""",,0.0579888098849,0.310563351522,-0.0157242015347
1501822124081368923,,8477,,1501822124,81368923,"""map""",,0.05918625057,0.312397708475,-0.0162074270292
1501822124086374044,,8544,,1501822124,86374044,"""map""",,0.0596050937171,0.314301565084,-0.0163053033722
1501822124091378927,,8564,,1501822124,91378927,"""map""",,0.0606240114787,0.31617809401,-0.0163480647277
1501822124096384048,,8629,,1501822124,96384048,"""map""",,0.061157471733,0.317882160716,-0.0162317931468
1501822124101388931,,8650,,1501822124,101388931,"""map""",,0.0614377545966,0.320226442091,-0.0161720410233
1501822124106394052,,8717,,1501822124,106394052,"""map""",,0.0625005895127,0.321937899134,-0.0163131423912
1501822124111378908,,8737,,1501822124,111378908,"""map""",,0.0629984920593,0.323774053726,-0.0165273986943
1501822124116384029,,8803,,1501822124,116384029,"""map""",,0.0637405189103,0.32602709346,-0.0169224741074
1501822124121381044,,8824,,1501822124,121381044,"""map""",,0.0644535712597,0.327868946132,-0.0172113822272
1501822124126385927,,8889,,1501822124,126385927,"""map""",,0.0653998180715,0.329880010812,-0.0173447799337
1501822124131370067,,8906,,1501822124,131370067,"""map""",,0.066017141395,0.33157598264,-0.0173552264423
1501822124136374950,,8971,,1501822124,136374950,"""map""",,0.0668732988576,0.333914878004,-0.0174208088832
1501822124141380071,,8994,,1501822124,141380071,"""map""",,0.0671253669362,0.336156009279,-0.017457630904
1501822124146384954,,9057,,1501822124,146384954,"""map""",,0.0676467946246,0.337991911951,-0.0175338064774
1501822124151381969,,9080,,1501822124,151381969,"""map""",,0.0685010301703,0.340080142944,-0.0179349423888
1501822124156387090,,9144,,1501822124,156387090,"""map""",,0.0693518479733,0.342526944939,-0.018375150898
1501822124161375999,,9166,,1501822124,161375999,"""map""",,0.0700405939542,0.344416057267,-0.0184634025616
1501822124166380882,,9215,,1501822124,166380882,"""map""",,0.0703899704831,0.346537450044,-0.0182861770048
1501822124171377897,,9238,,1501822124,171377897,"""map""",,0.0710896912514,0.348608489511,-0.0182265518419
1501822124176383018,,9302,,1501822124,176383018,"""map""",,0.0713789590101,0.350783723584,-0.018162167656
1501822124181380987,,9324,,1501822124,181380987,"""map""",,0.0722384573082,0.353183842547,-0.0183693119677
1501822124196393013,,9369,,1501822124,196393013,"""map""",,0.0744687499927,0.359601542283,-0.0188713252221
1501822124201384067,,9384,,1501822124,201384067,"""map""",,0.0752462741648,0.361527413212,-0.0186119565691
1501822124206388950,,9450,,1501822124,206388950,"""map""",,0.0754686947254,0.363676885689,-0.0184165699525
1501822124211394071,,9471,,1501822124,211394071,"""map""",,0.0760303801236,0.366161716828,-0.0185783671856
1501822124216398954,,9536,,1501822124,216398954,"""map""",,0.0771719284319,0.368337672464,-0.0185718731654
1501822124221390008,,9557,,1501822124,221390008,"""map""",,0.0782460329257,0.370666360965,-0.0185724815324
1501822124226394891,,9623,,1501822124,226394891,"""map""",,0.0787181653286,0.373048454593,-0.0184590976699
1501822124231400012,,9643,,1501822124,231400012,"""map""",,0.0790625930579,0.375105715753,-0.0183512547615
1501822124236404895,,9704,,1501822124,236404895,"""map""",,0.07965375685,0.377419001067,-0.0183645097952
1501822124241390943,,9725,,1501822124,241390943,"""map""",,0.0800877201764,0.379735003534,-0.0182201016902
1501822124251394987,,9800,,1501822124,251394987,"""map""",,0.0813492016417,0.384584110005,-0.0180557911444
1501822124256400108,,9865,,1501822124,256400108,"""map""",,0.082118948619,0.38714393517,-0.018049427915
1501822124261399030,,9888,,1501822124,261399030,"""map""",,0.082962144088,0.389254373654,-0.0180069742926
1501822124266403913,,9951,,1501822124,266403913,"""map""",,0.0837585785353,0.391357771327,-0.0180966799258
1501822124271382093,,9974,,1501822124,271382093,"""map""",,0.08440108472,0.393899675514,-0.0181719762641
1501822124276386976,,10037,,1501822124,276386976,"""map""",,0.0849617644615,0.39619304569,-0.0180266978548
1501822124281392097,,10060,,1501822124,281392097,"""map""",,0.0851283961634,0.398285569349,-0.0177776886851
1501822124286396980,,10124,,1501822124,286396980,"""map""",,0.0857280881892,0.400920341842,-0.0179318253758
1501822124291395902,,10146,,1501822124,291395902,"""map""",,0.086620503959,0.403372977334,-0.0181218662879
1501822124301400899,,10216,,1501822124,301400899,"""map""",,0.0880938666879,0.408483415462,-0.018148006141
1501822124306406021,,10277,,1501822124,306406021,"""map""",,0.0891463737683,0.410412524746,-0.0179868524023
1501822124316416025,,10359,,1501822124,316416025,"""map""",,0.0893218310064,0.41542231806,-0.0177395640369
1501822124321417093,,10374,,1501822124,321417093,"""map""",,0.0906462011516,0.41801334402,-0.0178372374919
1501822124326421976,,10440,,1501822124,326421976,"""map""",,0.0919328058812,0.420206859415,-0.0178880159023
1501822124331394910,,10461,,1501822124,331394910,"""map""",,0.0921622934399,0.422801107409,-0.0177251463855
1501822124336400032,,10527,,1501822124,336400032,"""map""",,0.0930646592584,0.424942591144,-0.0176412910507
1501822124341404914,,10547,,1501822124,341404914,"""map""",,0.0938760160777,0.427500551835,-0.0177101397132
1501822124346410036,,10613,,1501822124,346410036,"""map""",,0.0945891798294,0.430033688449,-0.0177301409636
1501822124351414918,,10635,,1501822124,351414918,"""map""",,0.0949970537631,0.432509378414,-0.0175888471521
1501822124356420040,,10700,,1501822124,356420040,"""map""",,0.0960056564157,0.435216557529,-0.0175579429309
1501822124361407041,,10721,,1501822124,361407041,"""map""",,0.0968030926944,0.437717372772,-0.0175808321144
1501822124366411924,,10786,,1501822124,366411924,"""map""",,0.0975831468823,0.440267570694,-0.0175302857224
1501822124371398925,,10808,,1501822124,371398925,"""map""",,0.0988073292197,0.44292888149,-0.0174952304505
1501822124376404047,,10870,,1501822124,376404047,"""map""",,0.099722388849,0.44547086388,-0.0174891954803
1501822124381395101,,10889,,1501822124,381395101,"""map""",,0.100943223599,0.447779954438,-0.0174511661377
1501822124386399984,,10952,,1501822124,386399984,"""map""",,0.1019391475,0.450449159955,-0.0174830139113
1501822124391405105,,10975,,1501822124,391405105,"""map""",,0.102447851397,0.452761449292,-0.0173207382197
1501822124396409988,,11037,,1501822124,396409988,"""map""",,0.103079073355,0.455554545404,-0.0172428412753
1501822124406388998,,11100,,1501822124,406388998,"""map""",,0.10497423672,0.460557464861,-0.0170039207637
1501822124411393880,,11120,,1501822124,411393880,"""map""",,0.10559272398,0.463023580871,-0.0167655773387
1501822124416399002,,11184,,1501822124,416399002,"""map""",,0.107191070011,0.465698250442,-0.0167993518489
1501822124446403026,,11254,,1501822124,446403026,"""map""",,0.111643539196,0.482791016581,-0.0154691903795
1501822124451400995,,11274,,1501822124,451400995,"""map""",,0.112341201196,0.485486848769,-0.0151045699515
1501822124456406116,,11341,,1501822124,456406116,"""map""",,0.11356951704,0.488086739032,-0.0147985554411
1501822124461410999,,11362,,1501822124,461410999,"""map""",,0.113915127233,0.491322966431,-0.0146126705421
1501822124466415882,,11427,,1501822124,466415882,"""map""",,0.115087275017,0.49416588385,-0.0142664745884
1501822124471419095,,11448,,1501822124,471419095,"""map""",,0.115379624187,0.497817254246,-0.0138873170591
1501822124476423978,,11513,,1501822124,476423978,"""map""",,0.116466672552,0.500280526313,-0.0134573913104
1501822124481429100,,11535,,1501822124,481429100,"""map""",,0.116782915756,0.503573313187,-0.0130618286371
1501822124486433982,,11599,,1501822124,486433982,"""map""",,0.117487871895,0.506841823146,-0.0127737964171
1501822124491409063,,11622,,1501822124,491409063,"""map""",,0.118846055568,0.509844240618,-0.0124236898429
1501822124496413946,,11685,,1501822124,496413946,"""map""",,0.119514641783,0.512977139493,-0.0119506370937
1501822124506423950,,11754,,1501822124,506423950,"""map""",,0.120830959481,0.519858066317,-0.0106573315945
1501822124511429071,,11777,,1501822124,511429071,"""map""",,0.122401297152,0.522948197236,-0.0100514215411
1501822124516433954,,11835,,1501822124,516433954,"""map""",,0.123126889535,0.526232134118,-0.00947943119738
1501822124526398897,,11907,,1501822124,526398897,"""map""",,0.124365934035,0.533180489578,-0.00871233859055
1501822124536408901,,11964,,1501822124,536408901,"""map""",,0.125738739754,0.540712744966,-0.0081618429336
1501822124541414022,,11985,,1501822124,541414022,"""map""",,0.125907917007,0.544661063222,-0.00769217587361
1501822124546418905,,12051,,1501822124,546418905,"""map""",,0.126989281888,0.548110358496,-0.00720042988924
1501822124551424026,,12071,,1501822124,551424026,"""map""",,0.127867822239,0.551551054239,-0.00687718672209
1501822124556428909,,12138,,1501822124,556428909,"""map""",,0.128326508439,0.554872344883,-0.00669979844674
1501822124561434030,,12158,,1501822124,561434030,"""map""",,0.129716001393,0.558324413641,-0.00667523032311
1501822124566438913,,12224,,1501822124,566438913,"""map""",,0.131318956769,0.561305038524,-0.00658112480934
1501822124571444988,,12244,,1501822124,571444988,"""map""",,0.132654260825,0.564999772326,-0.00668602592719
1501822124576450109,,12310,,1501822124,576450109,"""map""",,0.133372351792,0.568414564869,-0.00649227374159
1501822124581404924,,12330,,1501822124,581404924,"""map""",,0.135015660614,0.57191137792,-0.00650877107955
1501822124586410045,,12393,,1501822124,586410045,"""map""",,0.136581725224,0.575140539007,-0.00648763595956
1501822124591404914,,12414,,1501822124,591404914,"""map""",,0.137704944236,0.578497351155,-0.00649088305858
1501822124596410036,,12479,,1501822124,596410036,"""map""",,0.139016289949,0.582426679874,-0.00675585033769
1501822124601408958,,12501,,1501822124,601408958,"""map""",,0.140344036901,0.586102760813,-0.00691750981715
1501822124606414079,,12561,,1501822124,606414079,"""map""",,0.142067443793,0.58920665452,-0.00701588864648
1501822124611418962,,12582,,1501822124,611418962,"""map""",,0.143382878247,0.592271286482,-0.00710649315736
1501822124616424083,,12645,,1501822124,616424083,"""map""",,0.14490879847,0.595452700861,-0.00729973157586
1501822124621403932,,12668,,1501822124,621403932,"""map""",,0.146770914933,0.598510006249,-0.00748974979292
1501822124626409053,,12731,,1501822124,626409053,"""map""",,0.148484467671,0.602085955195,-0.00767488442001
1501822124631407022,,12754,,1501822124,631407022,"""map""",,0.149704195732,0.605411450708,-0.00769585557612
1501822124636411905,,12818,,1501822124,636411905,"""map""",,0.150996361373,0.609086337265,-0.00759611784256
1501822124656407117,,12885,,1501822124,656407117,"""map""",,0.156254056252,0.622581641878,-0.0073899903487
1501822124661412000,,12906,,1501822124,661412000,"""map""",,0.157675893588,0.626135890631,-0.00720153539507
1501822124666416883,,12971,,1501822124,666416883,"""map""",,0.158803192141,0.629814198985,-0.00688631693563
1501822124671401023,,12993,,1501822124,671401023,"""map""",,0.159725083133,0.633451686589,-0.00619481164538
1501822124676405906,,13042,,1501822124,676405906,"""map""",,0.161438680373,0.636796399622,-0.00541651124072
1501822124681411027,,13063,,1501822124,681411027,"""map""",,0.163013045802,0.640453427192,-0.004704517007
1501822124686415910,,13129,,1501822124,686415910,"""map""",,0.163851805168,0.643725407365,-0.00392575645592
1501822124691409111,,13149,,1501822124,691409111,"""map""",,0.164068171445,0.6473799326,-0.00320557721956
1501822124696413993,,13214,,1501822124,696413993,"""map""",,0.165301535561,0.651427519901,-0.00300975332539
1501822124701416015,,13236,,1501822124,701416015,"""map""",,0.166460219454,0.655414007698,-0.00285273859661
1501822124711419105,,13309,,1501822124,711419105,"""map""",,0.168943882285,0.663287632224,-0.00221797346632
1501822124721429109,,13374,,1501822124,721429109,"""map""",,0.171937346096,0.670745611888,-0.00108015559639
1501822124726433992,,13437,,1501822124,726433992,"""map""",,0.173008231848,0.67451955452,-0.000246962600538
1501822124731416940,,13460,,1501822124,731416940,"""map""",,0.173772880396,0.678305389933,0.000606698764695
1501822124736422061,,13523,,1501822124,736422061,"""map""",,0.175170444331,0.681993937761,0.00109508691019
1501822124741419076,,13546,,1501822124,741419076,"""map""",,0.176425385993,0.685689473851,0.00121689886536
1501822124746423959,,13609,,1501822124,746423959,"""map""",,0.177561847152,0.689653107502,0.00133321414111
1501822124756433010,,13692,,1501822124,756433010,"""map""",,0.180980067054,0.697127349364,0.00123694339082
1501822124761420011,,13714,,1501822124,761420011,"""map""",,0.182917264014,0.70106625093,0.00113086418838
1501822124766424894,,13772,,1501822124,766424894,"""map""",,0.184311107679,0.705092151294,0.00140965302017
1501822124796425104,,13889,,1501822124,796425104,"""map""",,0.193930709196,0.729030897071,0.00297803786381
1501822124801419019,,13909,,1501822124,801419019,"""map""",,0.19508129393,0.732963789812,0.00346216648089
1501822124806423902,,13976,,1501822124,806423902,"""map""",,0.196324590675,0.73729366622,0.00381069627749
1501822124811414957,,13996,,1501822124,811414957,"""map""",,0.198265612379,0.741765891595,0.00406244779352
1501822124816420078,,14062,,1501822124,816420078,"""map""",,0.199232031238,0.745799724509,0.00453983003218
1501822124821412086,,14082,,1501822124,821412086,"""map""",,0.200058807016,0.750342514844,0.00510139422987
1501822124826416969,,14148,,1501822124,826416969,"""map""",,0.200917582805,0.754427358884,0.00554039508555
1501822124831422090,,14170,,1501822124,831422090,"""map""",,0.202327371463,0.758149284012,0.00586860354118
1501822124836426973,,14234,,1501822124,836426973,"""map""",,0.203384926179,0.762507761726,0.00630901585454
1501822124841420888,,14256,,1501822124,841420888,"""map""",,0.204265021618,0.766640178068,0.00720664208407
1501822124846426010,,14320,,1501822124,846426010,"""map""",,0.205748462038,0.770970360922,0.00804133529129
1501822124851418972,,14343,,1501822124,851418972,"""map""",,0.207371321796,0.77548004117,0.00877397382073
1501822124856424093,,14407,,1501822124,856424093,"""map""",,0.207525474393,0.780246591091,0.00981894616854
1501822124861418008,,14430,,1501822124,861418008,"""map""",,0.208371544505,0.784921658917,0.0105661804247
1501822124866422891,,14493,,1501822124,866422891,"""map""",,0.209503931292,0.788961167306,0.0111948146375
1501822124871419906,,14507,,1501822124,871419906,"""map""",,0.210494912157,0.793281961246,0.0117455700851
1501822124876425027,,14568,,1501822124,876425027,"""map""",,0.211347780812,0.797806855397,0.0122938053081
1501822124881417036,,14590,,1501822124,881417036,"""map""",,0.213267539683,0.801606652494,0.0128345638527
1501822124886421918,,14654,,1501822124,886421918,"""map""",,0.214954818528,0.805890507355,0.0132658174561
1501822124891427040,,14676,,1501822124,891427040,"""map""",,0.216015137465,0.81054664756,0.0137767309168
1501822124896431922,,14741,,1501822124,896431922,"""map""",,0.217585563029,0.814795226297,0.0142650918547
1501822124901422023,,14762,,1501822124,901422023,"""map""",,0.219553801509,0.819328360728,0.0143998612893
1501822124926433086,,14816,,1501822124,926433086,"""map""",,0.225431706074,0.840284491737,0.0150849871275
1501822124931437969,,14836,,1501822124,931437969,"""map""",,0.227457993313,0.844531275542,0.0150767676269
1501822124936443090,,14902,,1501822124,936443090,"""map""",,0.229347297329,0.848462361885,0.0149837877214
1501822124941442012,,14922,,1501822124,941442012,"""map""",,0.230693254081,0.852962376274,0.0147282364461
1501822124946446895,,14980,,1501822124,946446895,"""map""",,0.231818085297,0.857293781206,0.0145566965499
1501822124951421022,,15000,,1501822124,951421022,"""map""",,0.23338789323,0.86140475083,0.0142478261033
1501822124956425905,,15066,,1501822124,956425905,"""map""",,0.234008298242,0.865518413525,0.0140880122705
1501822124961417913,,15088,,1501822124,961417913,"""map""",,0.234788681725,0.86976724953,0.0138519292665
1501822124966423034,,15152,,1501822124,966423034,"""map""",,0.23591402528,0.873977940341,0.013544026856
1501822124971427917,,15175,,1501822124,971427917,"""map""",,0.238684166781,0.878321179307,0.0128670952297
1501822124976433038,,15238,,1501822124,976433038,"""map""",,0.240048511291,0.882462099609,0.0126153240884
1501822124981437921,,15261,,1501822124,981437921,"""map""",,0.241302023526,0.886477052646,0.012403804396
1501822124986443042,,15324,,1501822124,986443042,"""map""",,0.242369222833,0.890206950794,0.0122106806883
1501822124991424083,,15347,,1501822124,991424083,"""map""",,0.244228775406,0.893953251118,0.0117159071605
1501822124996428966,,15411,,1501822124,996428966,"""map""",,0.244877325286,0.898139613339,0.0113909479651
1501822125001425981,,15433,,1501822125,1425981,"""map""",,0.246062417236,0.901868957016,0.0109719556097
1501822125006431102,,15497,,1501822125,6431102,"""map""",,0.247866554732,0.906302066328,0.0103264789378
1501822125016441106,,15534,,1501822125,16441106,"""map""",,0.250536200678,0.914776374933,0.00945734551783
1501822125036439895,,15562,,1501822125,36439895,"""map""",,0.255295069452,0.930473104543,0.00749675950957
1501822125041435003,,15584,,1501822125,41435003,"""map""",,0.256724224276,0.934315456698,0.00681759716318
1501822125046439886,,15632,,1501822125,46439886,"""map""",,0.257940162857,0.938053903697,0.00630569789913
1501822125056441068,,15712,,1501822125,56441068,"""map""",,0.26046443023,0.945914741478,0.00510018596537
1501822125061434984,,15729,,1501822125,61434984,"""map""",,0.261582862697,0.949426781886,0.00455141952342
1501822125066440105,,15787,,1501822125,66440105,"""map""",,0.261998245492,0.953496694952,0.00418206117614
1501822125071439027,,15805,,1501822125,71439027,"""map""",,0.262958528942,0.958087784203,0.00370954584435
1501822125076443910,,15859,,1501822125,76443910,"""map""",,0.264517167453,0.962385844954,0.0030565774327
1501822125081449031,,15882,,1501822125,81449031,"""map""",,0.265429996928,0.966588645177,0.00255159674544
1501822125086453914,,15945,,1501822125,86453914,"""map""",,0.265857818577,0.970389506051,0.00208458232373
1501822125091439008,,15968,,1501822125,91439008,"""map""",,0.266900419363,0.973760519781,0.00149758683771
1501822125096443891,,16031,,1501822125,96443891,"""map""",,0.268332582305,0.977223524616,0.000747774371839
1501822125101430892,,16054,,1501822125,101430892,"""map""",,0.269089098666,0.98089539431,0.000326131906851
1501822125106436014,,16118,,1501822125,106436014,"""map""",,0.270570642976,0.985423859257,-0.000270744275636
1501822125116445064,,16167,,1501822125,116445064,"""map""",,0.273773294464,0.994435975736,-0.00139490220401
1501822125121449947,,16189,,1501822125,121449947,"""map""",,0.274181329281,0.998442287446,-0.00153476070437
1501822125126455068,,16253,,1501822125,126455068,"""map""",,0.275683816609,1.002063089,-0.00212254385479
1501822125131443977,,16275,,1501822125,131443977,"""map""",,0.276911652255,1.00590125992,-0.00305229627579
1501822125136449098,,16339,,1501822125,136449098,"""map""",,0.277910885241,1.00966472976,-0.00396405521561
1501822125141437053,,16361,,1501822125,141437053,"""map""",,0.279084801343,1.01349099553,-0.00461474308705
1501822125146441936,,16428,,1501822125,146441936,"""map""",,0.280196806447,1.01744097306,-0.00501996430779
1501822125151436090,,16448,,1501822125,151436090,"""map""",,0.281592423755,1.02107843816,-0.00521492308289
1501822125156440973,,16491,,1501822125,156440973,"""map""",,0.282192255789,1.0251862966,-0.0054069563127
1501822125166446924,,16559,,1501822125,166446924,"""map""",,0.28490858122,1.03241201389,-0.00658876765838
1501822125171437978,,16579,,1501822125,171437978,"""map""",,0.285205121115,1.03617449635,-0.00733835302175
1501822125176443099,,16639,,1501822125,176443099,"""map""",,0.286296368291,1.04008668556,-0.00826589980599
1501822125181441068,,16659,,1501822125,181441068,"""map""",,0.288486707678,1.04390005625,-0.00915786165787
1501822125186445951,,16720,,1501822125,186445951,"""map""",,0.288939708666,1.04783923454,-0.00947791021685
1501822125191451072,,16741,,1501822125,191451072,"""map""",,0.289977544987,1.05176733267,-0.00967119510769
1501822125196455955,,16806,,1501822125,196455955,"""map""",,0.290762918721,1.05530787052,-0.00989698204737
1501822125201447010,,16826,,1501822125,201447010,"""map""",,0.292187970826,1.05906873997,-0.010667521824
1501822125206451892,,16890,,1501822125,206451892,"""map""",,0.293021713757,1.06260693645,-0.0112369411309
1501822125211436986,,16913,,1501822125,211436986,"""map""",,0.294255359235,1.0661577617,-0.0116778528664
1501822125216442108,,16976,,1501822125,216442108,"""map""",,0.296389972807,1.0693823802,-0.0120682710005
1501822125221446990,,16999,,1501822125,221446990,"""map""",,0.297138344296,1.07293767557,-0.0122060200293
1501822125226452112,,17063,,1501822125,226452112,"""map""",,0.297222867552,1.07676589101,-0.0121218373917
1501822125231456995,,17085,,1501822125,231456995,"""map""",,0.298777560034,1.0806916852,-0.0123968737172
1501822125236462116,,17149,,1501822125,236462116,"""map""",,0.300212968831,1.08498091031,-0.0128342222847
1501822125241447925,,17171,,1501822125,241447925,"""map""",,0.301104625002,1.0889998128,-0.013090715167
1501822125246453046,,17235,,1501822125,246453046,"""map""",,0.302898464375,1.09297631039,-0.0135045395453
1501822125251457929,,17257,,1501822125,251457929,"""map""",,0.304537203747,1.09648319008,-0.0140639720886
1501822125256463050,,17323,,1501822125,256463050,"""map""",,0.305637546838,1.0996678751,-0.0144935886007
1501822125261446952,,17344,,1501822125,261446952,"""map""",,0.305916436622,1.10278212103,-0.0148202708567
1501822125266452074,,17405,,1501822125,266452074,"""map""",,0.307944638107,1.10608199277,-0.0152677502464
1501822125271456956,,17425,,1501822125,271456956,"""map""",,0.309118401944,1.10957922301,-0.0154587124007
1501822125276462078,,17492,,1501822125,276462078,"""map""",,0.310237394847,1.11347205612,-0.0154431843878
1501822125281466960,,17512,,1501822125,281466960,"""map""",,0.311299871076,1.11732713819,-0.0154292013531
1501822125286472082,,17578,,1501822125,286472082,"""map""",,0.31301924866,1.1216557573,-0.0157074398703
1501822125291444063,,17598,,1501822125,291444063,"""map""",,0.314380898361,1.12539792697,-0.015849639814
1501822125296448945,,17664,,1501822125,296448945,"""map""",,0.315574124626,1.1288018886,-0.015725465698
1501822125301438093,,17684,,1501822125,301438093,"""map""",,0.316674096079,1.13250000469,-0.015875562103
1501822125306442975,,17751,,1501822125,306442975,"""map""",,0.318745903868,1.13609469752,-0.0162811498994
1501822125311448097,,17773,,1501822125,311448097,"""map""",,0.320708056602,1.13991173619,-0.0165955306611
1501822125316452980,,17837,,1501822125,316452980,"""map""",,0.321889411989,1.14348428363,-0.0166217744676
1501822125321458101,,17848,,1501822125,321458101,"""map""",,0.322571399394,1.14692574232,-0.0166079338384
1501822125326462984,,17911,,1501822125,326462984,"""map""",,0.323451527396,1.14968234071,-0.0165523352972
1501822125331445932,,17934,,1501822125,331445932,"""map""",,0.324112995544,1.15246333276,-0.0166908544867
1501822125336451053,,17997,,1501822125,336451053,"""map""",,0.325520365286,1.15541050963,-0.017153599777
1501822125341455936,,18020,,1501822125,341455936,"""map""",,0.326929205831,1.15879473787,-0.0176907713329
1501822125346461057,,18083,,1501822125,346461057,"""map""",,0.328282246852,1.16311196079,-0.017964078936
1501822125351459026,,18106,,1501822125,351459026,"""map""",,0.329651829475,1.16703082819,-0.017802863131
1501822125361454010,,18178,,1501822125,361454010,"""map""",,0.331372156442,1.17438554366,-0.0171969446598
1501822125366458892,,18229,,1501822125,366458892,"""map""",,0.332214410278,1.17826908325,-0.0171695331058
1501822125371455907,,18251,,1501822125,371455907,"""map""",,0.334270728547,1.18214606388,-0.017666641292
1501822125376461029,,18316,,1501822125,376461029,"""map""",,0.336142845809,1.18577802764,-0.0181140072969
1501822125381453037,,18337,,1501822125,381453037,"""map""",,0.338263516691,1.18980941778,-0.01836648672
1501822125386457920,,18403,,1501822125,386457920,"""map""",,0.339793319561,1.19432043469,-0.0181545347376
1501822125391463041,,18424,,1501822125,391463041,"""map""",,0.341809019786,1.19848701005,-0.0178033688211
1501822125396467924,,18490,,1501822125,396467924,"""map""",,0.343400978554,1.20349780572,-0.0173342736346
1501822125401458978,,18510,,1501822125,401458978,"""map""",,0.345080680892,1.2088894197,-0.0167758758684
1501822125406464099,,18577,,1501822125,406464099,"""map""",,0.347381290273,1.21507330027,-0.0166818335556
1501822125411468982,,18598,,1501822125,411468982,"""map""",,0.34913098658,1.21991904063,-0.0164553976233
1501822125416474103,,18659,,1501822125,416474103,"""map""",,0.350293097228,1.22366578238,-0.0163265648879
1501822125421468973,,18680,,1501822125,421468973,"""map""",,0.351797609803,1.22671851466,-0.0163895720479
1501822125426474094,,18745,,1501822125,426474094,"""map""",,0.352589047227,1.22992610603,-0.0166621823001
1501822125431478023,,18767,,1501822125,431478023,"""map""",,0.352182384595,1.23348935005,-0.0164657650158
1501822125436482906,,18823,,1501822125,436482906,"""map""",,0.351316517498,1.23831921051,-0.0161688976421
1501822125441471099,,18846,,1501822125,441471099,"""map""",,0.350683393766,1.24425188181,-0.0157636548086
1501822125446475982,,18909,,1501822125,446475982,"""map""",,0.350728521808,1.25004398833,-0.0153910099007
1501822125451481103,,18923,,1501822125,451481103,"""map""",,0.349979835349,1.25538716305,-0.0150402907565
1501822125456485986,,18987,,1501822125,456485986,"""map""",,0.349443659242,1.2592646071,-0.0150971897021
1501822125461461067,,19010,,1501822125,461461067,"""map""",,0.350047519162,1.2627354368,-0.0162121697175
1501822125466465950,,19074,,1501822125,466465950,"""map""",,0.35157331888,1.26469156907,-0.0175632063851
1501822125471455097,,19096,,1501822125,471455097,"""map""",,0.35171974055,1.26643828419,-0.0179314824201
1501822125476459980,,19160,,1501822125,476459980,"""map""",,0.351572087853,1.26847468862,-0.0176254287062
1501822125481465101,,19171,,1501822125,481465101,"""map""",,0.35254476479,1.27248396213,-0.0178004271346
1501822125491453886,,19213,,1501822125,491453886,"""map""",,0.358069715207,1.2818029593,-0.0171358039218
1501822125496459007,,19278,,1501822125,496459007,"""map""",,0.359102075821,1.28580948572,-0.0174686979514
1501822125501463890,,19299,,1501822125,501463890,"""map""",,0.358323218721,1.28999834164,-0.0194290560892
1501822125506469011,,19366,,1501822125,506469011,"""map""",,0.359305892205,1.29303176062,-0.0223305952865
1501822125511473894,,19387,,1501822125,511473894,"""map""",,0.361594913057,1.29645466758,-0.0254606470704
1501822125516479015,,19421,,1501822125,516479015,"""map""",,0.364698038554,1.29764165722,-0.0272137568699
1501822125521483898,,19441,,1501822125,521483898,"""map""",,0.3670017983,1.29887693325,-0.0274519514301
1501822125526489019,,19507,,1501822125,526489019,"""map""",,0.366805065971,1.30115398784,-0.0269299428463
1501822125531493902,,19529,,1501822125,531493902,"""map""",,0.368101133252,1.30390994073,-0.0266570691751
1501822125536499023,,19593,,1501822125,536499023,"""map""",,0.368912484486,1.30723734783,-0.0260456812231
1501822125541472911,,19614,,1501822125,541472911,"""map""",,0.370849446249,1.31058450748,-0.0258730599484
1501822125546478033,,19679,,1501822125,546478033,"""map""",,0.373680449913,1.31357780035,-0.0261868746465
1501822125551482915,,19701,,1501822125,551482915,"""map""",,0.378726751267,1.31581855933,-0.0270804733815
1501822125556488037,,19766,,1501822125,556488037,"""map""",,0.381683267005,1.31879529565,-0.0278314104803
1501822125561491012,,19789,,1501822125,561491012,"""map""",,0.38480430996,1.32183623518,-0.0286762771101
1501822125566495895,,19852,,1501822125,566495895,"""map""",,0.387026756398,1.32560539216,-0.0295707080954
1501822125571491956,,19875,,1501822125,571491956,"""map""",,0.387225335937,1.33019146651,-0.0305654028007
1501822125576497077,,19938,,1501822125,576497077,"""map""",,0.388452035166,1.3349509615,-0.0315089249383
1501822125581470966,,19961,,1501822125,581470966,"""map""",,0.390471830691,1.33911747209,-0.032158170279
1501822125586476087,,20025,,1501822125,586476087,"""map""",,0.393294788457,1.34227758363,-0.0321555014544
1501822125591464996,,20044,,1501822125,591464996,"""map""",,0.396942965301,1.34495171077,-0.0319881788312
1501822125596470117,,20108,,1501822125,596470117,"""map""",,0.400981979219,1.34826786752,-0.0323270440959
1501822125601457118,,20130,,1501822125,601457118,"""map""",,0.405063868784,1.35133044231,-0.032777273836
1501822125606462001,,20195,,1501822125,606462001,"""map""",,0.407968073818,1.35466056934,-0.0327700293693
1501822125611466884,,20217,,1501822125,611466884,"""map""",,0.409586428203,1.35818975541,-0.0317568810837
1501822125626466035,,20322,,1501822125,626466035,"""map""",,0.412836052272,1.36935479884,-0.0280995516367
1501822125631470918,,20343,,1501822125,631470918,"""map""",,0.413911719064,1.37429335187,-0.0282192008126
1501822125636476039,,20409,,1501822125,636476039,"""map""",,0.41508801488,1.37894520497,-0.0283462884472
1501822125641470909,,20429,,1501822125,641470909,"""map""",,0.416739251082,1.38310322396,-0.0278474935387
1501822125646476030,,20495,,1501822125,646476030,"""map""",,0.419153773953,1.38567305759,-0.026801040139
1501822125651467084,,20515,,1501822125,651467084,"""map""",,0.420508345514,1.38825915669,-0.0253259609568
1501822125666471004,,20604,,1501822125,666471004,"""map""",,0.42228327045,1.40122146175,-0.022087733945
1501822125671468973,,20626,,1501822125,671468973,"""map""",,0.421865472835,1.40583669664,-0.0205786825638
1501822125676474094,,20689,,1501822125,676474094,"""map""",,0.421334861309,1.40998593,-0.0191503285007
1501822125681471109,,20712,,1501822125,681471109,"""map""",,0.421164440176,1.41432082496,-0.0187786933878
1501822125686475992,,20775,,1501822125,686475992,"""map""",,0.422152645461,1.41848658483,-0.0189832631947
1501822125691473960,,20798,,1501822125,691473960,"""map""",,0.422528757826,1.42278874798,-0.0185862628898
1501822125696479082,,20862,,1501822125,696479082,"""map""",,0.422141395459,1.42721420996,-0.0173321215346
1501822125701474905,,20884,,1501822125,701474905,"""map""",,0.421474429319,1.4314822893,-0.0155775955008
1501822125706480026,,20949,,1501822125,706480026,"""map""",,0.420778528339,1.43602832492,-0.0140696765598
1501822125711483001,,20971,,1501822125,711483001,"""map""",,0.42188880442,1.44132852143,-0.0135408195988
1501822125721466064,,21036,,1501822125,721466064,"""map""",,0.422547926337,1.44969754662,-0.012377176749
1501822125726470947,,21102,,1501822125,726470947,"""map""",,0.421864002174,1.45306750844,-0.0112407460739
1501822125731476068,,21122,,1501822125,731476068,"""map""",,0.421248408561,1.45642278854,-0.00980015392196
1501822125736480951,,21188,,1501822125,736480951,"""map""",,0.422282885954,1.46006029348,-0.00848813719022
1501822125741486072,,21209,,1501822125,741486072,"""map""",,0.423359362923,1.46474053378,-0.00727980833137
1501822125746490955,,21274,,1501822125,746490955,"""map""",,0.422732236057,1.47047426845,-0.00604336980517
1501822125751485109,,21295,,1501822125,751485109,"""map""",,0.423495442117,1.47598146072,-0.00488672027375
1501822125756489992,,21362,,1501822125,756489992,"""map""",,0.423767507635,1.48068329874,-0.00350381019306
1501822125761473894,,21382,,1501822125,761473894,"""map""",,0.425012981803,1.48476404042,-0.00235354828445
1501822125766479015,,21448,,1501822125,766479015,"""map""",,0.426043258088,1.48888199012,-0.00129444994585
1501822125771473884,,21468,,1501822125,771473884,"""map""",,0.427092322061,1.49249976954,-0.000371214050716
1501822125776479005,,21534,,1501822125,776479005,"""map""",,0.428604757031,1.49637446694,0.000645414260262
1501822125781481027,,21556,,1501822125,781481027,"""map""",,0.43034041809,1.5002736579,0.00173818084273
1501822125786485910,,21620,,1501822125,786485910,"""map""",,0.432063289038,1.5040287849,0.00289368165378
1501822125791491031,,21643,,1501822125,791491031,"""map""",,0.43392442607,1.5081213339,0.00387005324424
1501822125796495914,,21706,,1501822125,796495914,"""map""",,0.434310278232,1.51228368755,0.00487778587557
1501822125801487922,,21729,,1501822125,801487922,"""map""",,0.435492227792,1.51604980478,0.00574229879353
1501822125806493043,,21785,,1501822125,806493043,"""map""",,0.437245469658,1.52011165588,0.00641827269214
1501822125811482906,,21808,,1501822125,811482906,"""map""",,0.438254790037,1.52415662859,0.00703502645769
1501822125816488027,,21872,,1501822125,816488027,"""map""",,0.439194372884,1.52852759639,0.00753181072442
1501822125821492910,,21894,,1501822125,821492910,"""map""",,0.440287117698,1.53231687057,0.00785539499704
1501822125826498031,,21958,,1501822125,826498031,"""map""",,0.442446447741,1.53588017437,0.0076662633256
1501822125831474065,,21980,,1501822125,831474065,"""map""",,0.443548849939,1.53918159106,0.00737043676252
1501822125836478948,,22044,,1501822125,836478948,"""map""",,0.444482247183,1.54256347837,0.00680332536073
1501822125841479063,,22066,,1501822125,841479063,"""map""",,0.445728948096,1.54561840628,0.0065274407347
1501822125846483945,,22130,,1501822125,846483945,"""map""",,0.447628174319,1.54841651782,0.0063917428645
1501822125851489067,,22152,,1501822125,851489067,"""map""",,0.449006006067,1.55163314013,0.00635233818074
1501822125856493949,,22218,,1501822125,856493949,"""map""",,0.449447791176,1.5557119662,0.0060664760414
1501822125861494064,,22238,,1501822125,861494064,"""map""",,0.45017339459,1.55952069474,0.00545330953898
1501822125866498947,,22304,,1501822125,866498947,"""map""",,0.450812225542,1.56337766076,0.0047071665792
1501822125871494054,,22325,,1501822125,871494054,"""map""",,0.451434316403,1.56679471746,0.00371912963205
1501822125876498937,,22391,,1501822125,876498937,"""map""",,0.452966767869,1.57022118124,0.00245263778914
1501822125881504058,,22411,,1501822125,881504058,"""map""",,0.454757962294,1.57379374912,0.0011991475077
1501822125886508941,,22477,,1501822125,886508941,"""map""",,0.455560204928,1.57741890194,0.000128711746702
1501822125891509056,,22492,,1501822125,891509056,"""map""",,0.455554726391,1.5807859654,-0.000678035472067
1501822125906490087,,22614,,1501822125,906490087,"""map""",,0.45706422246,1.59125704689,-0.00433701949762
1501822125911494970,,22635,,1501822125,911494970,"""map""",,0.457907416003,1.59495545015,-0.0059311942976
1501822125916500091,,22700,,1501822125,916500091,"""map""",,0.457899195439,1.59833411249,-0.00705246075996
1501822125926489114,,22749,,1501822125,926489114,"""map""",,0.458755884142,1.60541116837,-0.00982580858266
1501822125931477069,,22772,,1501822125,931477069,"""map""",,0.45842729835,1.60868202643,-0.0114077325736
1501822125936481952,,22836,,1501822125,936481952,"""map""",,0.458649962043,1.61207346577,-0.0130557035836
1501822125941487073,,22858,,1501822125,941487073,"""map""",,0.458922127613,1.61494793486,-0.0145342364307
1501822125946491956,,22919,,1501822125,946491956,"""map""",,0.459271300956,1.6183424662,-0.016585807467
1501822125951486110,,22941,,1501822125,951486110,"""map""",,0.459199935321,1.62196448464,-0.0187107763849
1501822125966500997,,23002,,1501822125,966500997,"""map""",,0.46103650004,1.63078153541,-0.0242480527105
1501822125971484899,,23024,,1501822125,971484899,"""map""",,0.461224117365,1.63318375877,-0.0261684079967
1501822125976490020,,23089,,1501822125,976490020,"""map""",,0.460458565262,1.63606927925,-0.028214523116
1501822125981492996,,23110,,1501822125,981492996,"""map""",,0.460397669452,1.63905129189,-0.0306169716906
1501822125986498117,,23177,,1501822125,986498117,"""map""",,0.461238450367,1.64281966014,-0.0332521195258
1501822125991503000,,23197,,1501822125,991503000,"""map""",,0.461387619554,1.64592591625,-0.0352895058073
1501822125996507883,,23263,,1501822125,996507883,"""map""",,0.461642615986,1.64892238649,-0.0374269602202
1501822126001492977,,23283,,1501822126,1492977,"""map""",,0.462426529391,1.65182103064,-0.039515218166
1501822126006498098,,23350,,1501822126,6498098,"""map""",,0.463296240281,1.65456615903,-0.0416997032915
1501822126011495113,,23371,,1501822126,11495113,"""map""",,0.464981427244,1.65686397465,-0.0439441571824
1501822126016499996,,23430,,1501822126,16499996,"""map""",,0.46518807118,1.65938155469,-0.0460832194897
1501822126021503925,,23452,,1501822126,21503925,"""map""",,0.46525478478,1.66183908023,-0.0482013857809
1501822126026509046,,23511,,1501822126,26509046,"""map""",,0.466555067535,1.66468806235,-0.0505938260076
1501822126031501054,,23534,,1501822126,31501054,"""map""",,0.467306047564,1.66739012955,-0.0529810692938
1501822126036505937,,23597,,1501822126,36505937,"""map""",,0.467663956242,1.66997316362,-0.0548541465141
1501822126041498899,,23620,,1501822126,41498899,"""map""",,0.468049965161,1.67279158269,-0.0564974400093
1501822126046504020,,23683,,1501822126,46504020,"""map""",,0.469153055178,1.67530968657,-0.0582638533153
1501822126051506996,,23706,,1501822126,51506996,"""map""",,0.471465776066,1.67789659867,-0.0600476349001
1501822126056512117,,23771,,1501822126,56512117,"""map""",,0.471734257808,1.68061525707,-0.0611869490411
1501822126061489105,,23793,,1501822126,61489105,"""map""",,0.472418062088,1.68324679091,-0.062282273737
1501822126066493988,,23857,,1501822126,66493988,"""map""",,0.472825168515,1.68567374538,-0.0640623463562
1501822126071499109,,23879,,1501822126,71499109,"""map""",,0.474393850009,1.68865643953,-0.0663369183365
1501822126076503992,,23943,,1501822126,76503992,"""map""",,0.476127004799,1.68988793957,-0.0677956176951
1501822126081495046,,23965,,1501822126,81495046,"""map""",,0.477346109734,1.69191855971,-0.0689193629045
1501822126086499929,,24030,,1501822126,86499929,"""map""",,0.477412020205,1.69389864127,-0.0696389195756
1501822126091500043,,24051,,1501822126,91500043,"""map""",,0.478720938605,1.69625760069,-0.0706450304606
1501822126096504926,,24118,,1501822126,96504926,"""map""",,0.481521013967,1.69943669693,-0.0714377531064
1501822126101510047,,24138,,1501822126,101510047,"""map""",,0.482698702892,1.70269674997,-0.0718701324996
1501822126106514930,,24201,,1501822126,106514930,"""map""",,0.483004120831,1.7053227768,-0.072221942169
1501822126111502885,,24222,,1501822126,111502885,"""map""",,0.483065634822,1.70776627664,-0.0726846592848
1501822126116508007,,24281,,1501822126,116508007,"""map""",,0.48413660874,1.71075241184,-0.0736521410566
1501822126121504068,,24301,,1501822126,121504068,"""map""",,0.486069052703,1.71375151248,-0.0748816300089
1501822126126508951,,24351,,1501822126,126508951,"""map""",,0.487256817213,1.7168504972,-0.0760060804128
1501822126131499052,,24372,,1501822126,131499052,"""map""",,0.488682297476,1.71988030488,-0.07653069157
