rosbagTimestamp,header,seq,stamp,secs,nsecs,frame_id,status,status,service,latitude,longitude,altitude,position_covariance,position_covariance_type
1501822123031317949,,6,,1501822123,31317949,"""gps""",,0,0,42.3059708629,-83.2448329011,156.021418836,"[0.0, 0.0, 0.0, 0.0, 0.0, 0.0, 0.0, 0.0, 0.0]",0
1501822123039287090,,70,,1501822123,39287090,"""gps""",,0,0,42.3059708652,-83.2448329007,156.021404103,"[0.0, 0.0, 0.0, 0.0, 0.0, 0.0, 0.0, 0.0, 0.0]",0
1501822123041313886,,89,,1501822123,41313886,"""gps""",,0,0,42.3059708675,-83.2448329002,156.021386854,"[0.0, 0.0, 0.0, 0.0, 0.0, 0.0, 0.0, 0.0, 0.0]",0
1501822123049295902,,159,,1501822123,49295902,"""gps""",,0,0,42.3059708698,-83.2448328997,156.021367828,"[0.0, 0.0, 0.0, 0.0, 0.0, 0.0, 0.0, 0.0, 0.0]",0
1501822123051310062,,180,,1501822123,51310062,"""gps""",,0,0,42.3059708722,-83.2448328992,156.021347896,"[0.0, 0.0, 0.0, 0.0, 0.0, 0.0, 0.0, 0.0, 0.0]",0
1501822123059303045,,246,,1501822123,59303045,"""gps""",,0,0,42.3059708745,-83.2448328986,156.021328436,"[0.0, 0.0, 0.0, 0.0, 0.0, 0.0, 0.0, 0.0, 0.0]",0
1501822123061312913,,267,,1501822123,61312913,"""gps""",,0,0,42.3059708769,-83.2448328981,156.021310714,"[0.0, 0.0, 0.0, 0.0, 0.0, 0.0, 0.0, 0.0, 0.0]",0
1501822123069293022,,332,,1501822123,69293022,"""gps""",,0,0,42.3059708794,-83.2448328976,156.021294589,"[0.0, 0.0, 0.0, 0.0, 0.0, 0.0, 0.0, 0.0, 0.0]",0
1501822123071316003,,353,,1501822123,71316003,"""gps""",,0,0,42.3059708818,-83.2448328969,156.021278512,"[0.0, 0.0, 0.0, 0.0, 0.0, 0.0, 0.0, 0.0, 0.0]",0
1501822123079293966,,418,,1501822123,79293966,"""gps""",,0,0,42.3059708842,-83.2448328963,156.021260279,"[0.0, 0.0, 0.0, 0.0, 0.0, 0.0, 0.0, 0.0, 0.0]",0
1501822123089288949,,493,,1501822123,89288949,"""gps""",,0,0,42.3059708891,-83.2448328947,156.021220975,"[0.0, 0.0, 0.0, 0.0, 0.0, 0.0, 0.0, 0.0, 0.0]",0
1501822123091317892,,516,,1501822123,91317892,"""gps""",,0,0,42.3059708916,-83.2448328938,156.02120181,"[0.0, 0.0, 0.0, 0.0, 0.0, 0.0, 0.0, 0.0, 0.0]",0
1501822123099315881,,579,,1501822123,99315881,"""gps""",,0,0,42.3059708941,-83.2448328929,156.02118417,"[0.0, 0.0, 0.0, 0.0, 0.0, 0.0, 0.0, 0.0, 0.0]",0
1501822123101306915,,603,,1501822123,101306915,"""gps""",,0,0,42.3059708966,-83.244832892,156.021168608,"[0.0, 0.0, 0.0, 0.0, 0.0, 0.0, 0.0, 0.0, 0.0]",0
1501822123109278917,,666,,1501822123,109278917,"""gps""",,0,0,42.3059708991,-83.2448328911,156.021155165,"[0.0, 0.0, 0.0, 0.0, 0.0, 0.0, 0.0, 0.0, 0.0]",0
1501822123111320018,,689,,1501822123,111320018,"""gps""",,0,0,42.3059709016,-83.2448328902,156.021143993,"[0.0, 0.0, 0.0, 0.0, 0.0, 0.0, 0.0, 0.0, 0.0]",0
1501822123119324922,,725,,1501822123,119324922,"""gps""",,0,0,42.3059709042,-83.2448328893,156.021133471,"[0.0, 0.0, 0.0, 0.0, 0.0, 0.0, 0.0, 0.0, 0.0]",0
1501822123121309995,,747,,1501822123,121309995,"""gps""",,0,0,42.3059709067,-83.2448328884,156.021123539,"[0.0, 0.0, 0.0, 0.0, 0.0, 0.0, 0.0, 0.0, 0.0]",0
1501822123129297018,,811,,1501822123,129297018,"""gps""",,0,0,42.3059709092,-83.2448328874,156.021114101,"[0.0, 0.0, 0.0, 0.0, 0.0, 0.0, 0.0, 0.0, 0.0]",0
1501822123131309986,,833,,1501822123,131309986,"""gps""",,0,0,42.3059709118,-83.2448328864,156.021106772,"[0.0, 0.0, 0.0, 0.0, 0.0, 0.0, 0.0, 0.0, 0.0]",0
1501822123139296054,,898,,1501822123,139296054,"""gps""",,0,0,42.3059709144,-83.2448328853,156.021100946,"[0.0, 0.0, 0.0, 0.0, 0.0, 0.0, 0.0, 0.0, 0.0]",0
1501822123141313076,,919,,1501822123,141313076,"""gps""",,0,0,42.3059709169,-83.2448328842,156.021097456,"[0.0, 0.0, 0.0, 0.0, 0.0, 0.0, 0.0, 0.0, 0.0]",0
1501822123149326086,,986,,1501822123,149326086,"""gps""",,0,0,42.3059709195,-83.244832883,156.021095711,"[0.0, 0.0, 0.0, 0.0, 0.0, 0.0, 0.0, 0.0, 0.0]",0
1501822123151314973,,1006,,1501822123,151314973,"""gps""",,0,0,42.3059709221,-83.2448328818,156.021094409,"[0.0, 0.0, 0.0, 0.0, 0.0, 0.0, 0.0, 0.0, 0.0]",0
1501822123159317970,,1073,,1501822123,159317970,"""gps""",,0,0,42.3059709247,-83.2448328805,156.021092654,"[0.0, 0.0, 0.0, 0.0, 0.0, 0.0, 0.0, 0.0, 0.0]",0
1501822123181322097,,1110,,1501822123,181322097,"""gps""",,0,0,42.3059703705,-83.2448324548,156.013574461,"[0.0, 0.0, 0.0, 0.0, 0.0, 0.0, 0.0, 0.0, 0.0]",0
1501822123189284086,,1175,,1501822123,189284086,"""gps""",,0,0,42.3059703706,-83.2448324548,156.013592748,"[0.0, 0.0, 0.0, 0.0, 0.0, 0.0, 0.0, 0.0, 0.0]",0
1501822123191324949,,1188,,1501822123,191324949,"""gps""",,0,0,42.3059703706,-83.2448324547,156.013610578,"[0.0, 0.0, 0.0, 0.0, 0.0, 0.0, 0.0, 0.0, 0.0]",0
1501822123201319932,,1251,,1501822123,201319932,"""gps""",,0,0,42.3059703734,-83.244832443,156.013644495,"[0.0, 0.0, 0.0, 0.0, 0.0, 0.0, 0.0, 0.0, 0.0]",0
1501822123209309101,,1315,,1501822123,209309101,"""gps""",,0,0,42.3059703734,-83.244832443,156.01366163,"[0.0, 0.0, 0.0, 0.0, 0.0, 0.0, 0.0, 0.0, 0.0]",0
1501822123211316108,,1338,,1501822123,211316108,"""gps""",,0,0,42.3059703748,-83.2448324371,156.013679395,"[0.0, 0.0, 0.0, 0.0, 0.0, 0.0, 0.0, 0.0, 0.0]",0
1501822123219290971,,1400,,1501822123,219290971,"""gps""",,0,0,42.3059703762,-83.2448324312,156.013698997,"[0.0, 0.0, 0.0, 0.0, 0.0, 0.0, 0.0, 0.0, 0.0]",0
1501822123229295015,,1458,,1501822123,229295015,"""gps""",,0,0,42.3059703763,-83.2448324311,156.013738925,"[0.0, 0.0, 0.0, 0.0, 0.0, 0.0, 0.0, 0.0, 0.0]",0
1501822123231364011,,1481,,1501822123,231364011,"""gps""",,0,0,42.3059703776,-83.2448324252,156.013758342,"[0.0, 0.0, 0.0, 0.0, 0.0, 0.0, 0.0, 0.0, 0.0]",0
1501822123241336107,,1551,,1501822123,241336107,"""gps""",,0,0,42.3059703804,-83.2448324134,156.013795998,"[0.0, 0.0, 0.0, 0.0, 0.0, 0.0, 0.0, 0.0, 0.0]",0
1501822123249300003,,1606,,1501822123,249300003,"""gps""",,0,0,42.3059703804,-83.2448324134,156.013814056,"[0.0, 0.0, 0.0, 0.0, 0.0, 0.0, 0.0, 0.0, 0.0]",0
1501822123251327991,,1624,,1501822123,251327991,"""gps""",,0,0,42.3059703804,-83.2448324134,156.013833075,"[0.0, 0.0, 0.0, 0.0, 0.0, 0.0, 0.0, 0.0, 0.0]",0
1501822123259306907,,1689,,1501822123,259306907,"""gps""",,0,0,42.3059703818,-83.2448324076,156.013852654,"[0.0, 0.0, 0.0, 0.0, 0.0, 0.0, 0.0, 0.0, 0.0]",0
1501822123261332988,,1709,,1501822123,261332988,"""gps""",,0,0,42.3059703832,-83.2448324018,156.013872841,"[0.0, 0.0, 0.0, 0.0, 0.0, 0.0, 0.0, 0.0, 0.0]",0
1501822123269372940,,1776,,1501822123,269372940,"""gps""",,0,0,42.3059703832,-83.2448324018,156.013892865,"[0.0, 0.0, 0.0, 0.0, 0.0, 0.0, 0.0, 0.0, 0.0]",0
1501822123271338939,,1796,,1501822123,271338939,"""gps""",,0,0,42.3059703846,-83.244832396,156.013911684,"[0.0, 0.0, 0.0, 0.0, 0.0, 0.0, 0.0, 0.0, 0.0]",0
1501822123279303073,,1862,,1501822123,279303073,"""gps""",,0,0,42.305970386,-83.2448323901,156.013928143,"[0.0, 0.0, 0.0, 0.0, 0.0, 0.0, 0.0, 0.0, 0.0]",0
1501822123281330108,,1882,,1501822123,281330108,"""gps""",,0,0,42.305970386,-83.24483239,156.013942981,"[0.0, 0.0, 0.0, 0.0, 0.0, 0.0, 0.0, 0.0, 0.0]",0
1501822123289352893,,1948,,1501822123,289352893,"""gps""",,0,0,42.3059703873,-83.2448323842,156.013957688,"[0.0, 0.0, 0.0, 0.0, 0.0, 0.0, 0.0, 0.0, 0.0]",0
1501822123291418075,,1970,,1501822123,291418075,"""gps""",,0,0,42.3059703887,-83.2448323783,156.013972001,"[0.0, 0.0, 0.0, 0.0, 0.0, 0.0, 0.0, 0.0, 0.0]",0
1501822123299310922,,2017,,1501822123,299310922,"""gps""",,0,0,42.30597039,-83.2448323724,156.013986314,"[0.0, 0.0, 0.0, 0.0, 0.0, 0.0, 0.0, 0.0, 0.0]",0
1501822123301337957,,2039,,1501822123,301337957,"""gps""",,0,0,42.30597039,-83.2448323724,156.014000178,"[0.0, 0.0, 0.0, 0.0, 0.0, 0.0, 0.0, 0.0, 0.0]",0
1501822123309317111,,2104,,1501822123,309317111,"""gps""",,0,0,42.3059703913,-83.2448323666,156.014012937,"[0.0, 0.0, 0.0, 0.0, 0.0, 0.0, 0.0, 0.0, 0.0]",0
1501822123311328887,,2126,,1501822123,311328887,"""gps""",,0,0,42.3059703927,-83.2448323609,156.014024368,"[0.0, 0.0, 0.0, 0.0, 0.0, 0.0, 0.0, 0.0, 0.0]",0
1501822123319315910,,2182,,1501822123,319315910,"""gps""",,0,0,42.3059703941,-83.2448323551,156.014034229,"[0.0, 0.0, 0.0, 0.0, 0.0, 0.0, 0.0, 0.0, 0.0]",0
1501822123321332931,,2205,,1501822123,321332931,"""gps""",,0,0,42.3059703941,-83.2448323552,156.014043213,"[0.0, 0.0, 0.0, 0.0, 0.0, 0.0, 0.0, 0.0, 0.0]",0
1501822123329312086,,2268,,1501822123,329312086,"""gps""",,0,0,42.3059703954,-83.2448323493,156.014052331,"[0.0, 0.0, 0.0, 0.0, 0.0, 0.0, 0.0, 0.0, 0.0]",0
1501822123331326961,,2290,,1501822123,331326961,"""gps""",,0,0,42.3059703954,-83.2448323494,156.014062013,"[0.0, 0.0, 0.0, 0.0, 0.0, 0.0, 0.0, 0.0, 0.0]",0
1501822123339309930,,2354,,1501822123,339309930,"""gps""",,0,0,42.3059703968,-83.2448323435,156.014072552,"[0.0, 0.0, 0.0, 0.0, 0.0, 0.0, 0.0, 0.0, 0.0]",0
1501822123341379880,,2377,,1501822123,341379880,"""gps""",,0,0,42.3059703981,-83.2448323376,156.014083352,"[0.0, 0.0, 0.0, 0.0, 0.0, 0.0, 0.0, 0.0, 0.0]",0
1501822123349306106,,2441,,1501822123,349306106,"""gps""",,0,0,42.3059703994,-83.2448323318,156.014092438,"[0.0, 0.0, 0.0, 0.0, 0.0, 0.0, 0.0, 0.0, 0.0]",0
1501822123351334095,,2463,,1501822123,351334095,"""gps""",,0,0,42.3059704007,-83.244832326,156.014099212,"[0.0, 0.0, 0.0, 0.0, 0.0, 0.0, 0.0, 0.0, 0.0]",0
1501822123359313964,,2528,,1501822123,359313964,"""gps""",,0,0,42.3059704021,-83.2448323202,156.014103893,"[0.0, 0.0, 0.0, 0.0, 0.0, 0.0, 0.0, 0.0, 0.0]",0
1501822123361336946,,2550,,1501822123,361336946,"""gps""",,0,0,42.305970402,-83.2448323202,156.014107302,"[0.0, 0.0, 0.0, 0.0, 0.0, 0.0, 0.0, 0.0, 0.0]",0
1501822123369299888,,2614,,1501822123,369299888,"""gps""",,0,0,42.3059704034,-83.2448323144,156.014111319,"[0.0, 0.0, 0.0, 0.0, 0.0, 0.0, 0.0, 0.0, 0.0]",0
1501822123371330976,,2636,,1501822123,371330976,"""gps""",,0,0,42.3059704047,-83.2448323087,156.014116846,"[0.0, 0.0, 0.0, 0.0, 0.0, 0.0, 0.0, 0.0, 0.0]",0
1501822123379349946,,2702,,1501822123,379349946,"""gps""",,0,0,42.3059704061,-83.2448323029,156.014123461,"[0.0, 0.0, 0.0, 0.0, 0.0, 0.0, 0.0, 0.0, 0.0]",0
1501822123381336927,,2722,,1501822123,381336927,"""gps""",,0,0,42.3059704074,-83.2448322971,156.014130424,"[0.0, 0.0, 0.0, 0.0, 0.0, 0.0, 0.0, 0.0, 0.0]",0
1501822123389348983,,2789,,1501822123,389348983,"""gps""",,0,0,42.3059704087,-83.2448322913,156.0141369,"[0.0, 0.0, 0.0, 0.0, 0.0, 0.0, 0.0, 0.0, 0.0]",0
1501822123391499042,,2811,,1501822123,391499042,"""gps""",,0,0,42.3059704087,-83.2448322913,156.014142343,"[0.0, 0.0, 0.0, 0.0, 0.0, 0.0, 0.0, 0.0, 0.0]",0
1501822123399321079,,2875,,1501822123,399321079,"""gps""",,0,0,42.3059704101,-83.2448322854,156.014146979,"[0.0, 0.0, 0.0, 0.0, 0.0, 0.0, 0.0, 0.0, 0.0]",0
1501822123401329994,,2895,,1501822123,401329994,"""gps""",,0,0,42.3059704114,-83.2448322796,156.014151891,"[0.0, 0.0, 0.0, 0.0, 0.0, 0.0, 0.0, 0.0, 0.0]",0
1501822123419537067,,2977,,1501822123,419537067,"""gps""",,0,0,42.3059704154,-83.2448322621,156.014171421,"[0.0, 0.0, 0.0, 0.0, 0.0, 0.0, 0.0, 0.0, 0.0]",0
1501822123421331882,,2995,,1501822123,421331882,"""gps""",,0,0,42.3059704168,-83.2448322562,156.014179097,"[0.0, 0.0, 0.0, 0.0, 0.0, 0.0, 0.0, 0.0, 0.0]",0
1501822123429303884,,3060,,1501822123,429303884,"""gps""",,0,0,42.3059704181,-83.2448322504,156.014186473,"[0.0, 0.0, 0.0, 0.0, 0.0, 0.0, 0.0, 0.0, 0.0]",0
1501822123431341886,,3082,,1501822123,431341886,"""gps""",,0,0,42.3059704181,-83.2448322504,156.014194159,"[0.0, 0.0, 0.0, 0.0, 0.0, 0.0, 0.0, 0.0, 0.0]",0
1501822123439317941,,3143,,1501822123,439317941,"""gps""",,0,0,42.3059704208,-83.2448322388,156.01420182,"[0.0, 0.0, 0.0, 0.0, 0.0, 0.0, 0.0, 0.0, 0.0]",0
1501822123441340923,,3166,,1501822123,441340923,"""gps""",,0,0,42.3059704221,-83.2448322329,156.014209937,"[0.0, 0.0, 0.0, 0.0, 0.0, 0.0, 0.0, 0.0, 0.0]",0
1501822123449366092,,3229,,1501822123,449366092,"""gps""",,0,0,42.3059704235,-83.2448322271,156.014218924,"[0.0, 0.0, 0.0, 0.0, 0.0, 0.0, 0.0, 0.0, 0.0]",0
1501822123451340913,,3253,,1501822123,451340913,"""gps""",,0,0,42.3059704234,-83.2448322271,156.014228662,"[0.0, 0.0, 0.0, 0.0, 0.0, 0.0, 0.0, 0.0, 0.0]",0
1501822123459312915,,3316,,1501822123,459312915,"""gps""",,0,0,42.3059704262,-83.2448322154,156.014238576,"[0.0, 0.0, 0.0, 0.0, 0.0, 0.0, 0.0, 0.0, 0.0]",0
1501822123461350917,,3339,,1501822123,461350917,"""gps""",,0,0,42.3059704275,-83.2448322095,156.014248748,"[0.0, 0.0, 0.0, 0.0, 0.0, 0.0, 0.0, 0.0, 0.0]",0
1501822123469321966,,3403,,1501822123,469321966,"""gps""",,0,0,42.3059704289,-83.2448322036,156.014260196,"[0.0, 0.0, 0.0, 0.0, 0.0, 0.0, 0.0, 0.0, 0.0]",0
1501822123471330881,,3425,,1501822123,471330881,"""gps""",,0,0,42.3059704302,-83.2448321978,156.0142729,"[0.0, 0.0, 0.0, 0.0, 0.0, 0.0, 0.0, 0.0, 0.0]",0
1501822123479294061,,3489,,1501822123,479294061,"""gps""",,0,0,42.3059704316,-83.2448321919,156.014286928,"[0.0, 0.0, 0.0, 0.0, 0.0, 0.0, 0.0, 0.0, 0.0]",0
1501822123481334924,,3511,,1501822123,481334924,"""gps""",,0,0,42.3059704329,-83.244832186,156.014301423,"[0.0, 0.0, 0.0, 0.0, 0.0, 0.0, 0.0, 0.0, 0.0]",0
1501822123489310979,,3575,,1501822123,489310979,"""gps""",,0,0,42.3059704343,-83.2448321802,156.014315912,"[0.0, 0.0, 0.0, 0.0, 0.0, 0.0, 0.0, 0.0, 0.0]",0
1501822123491341114,,3597,,1501822123,491341114,"""gps""",,0,0,42.3059704357,-83.2448321743,156.014330676,"[0.0, 0.0, 0.0, 0.0, 0.0, 0.0, 0.0, 0.0, 0.0]",0
1501822123499356985,,3663,,1501822123,499356985,"""gps""",,0,0,42.305970437,-83.2448321685,156.014346456,"[0.0, 0.0, 0.0, 0.0, 0.0, 0.0, 0.0, 0.0, 0.0]",0
1501822123501364946,,3683,,1501822123,501364946,"""gps""",,0,0,42.3059704398,-83.2448321568,156.014363204,"[0.0, 0.0, 0.0, 0.0, 0.0, 0.0, 0.0, 0.0, 0.0]",0
1501822123509309053,,3750,,1501822123,509309053,"""gps""",,0,0,42.3059704411,-83.2448321509,156.014381281,"[0.0, 0.0, 0.0, 0.0, 0.0, 0.0, 0.0, 0.0, 0.0]",0
1501822123511403083,,3771,,1501822123,511403083,"""gps""",,0,0,42.3059704411,-83.2448321509,156.014400444,"[0.0, 0.0, 0.0, 0.0, 0.0, 0.0, 0.0, 0.0, 0.0]",0
1501822123519391059,,3837,,1501822123,519391059,"""gps""",,0,0,42.3059704439,-83.2448321392,156.018818093,"[0.0, 0.0, 0.0, 0.0, 0.0, 0.0, 0.0, 0.0, 0.0]",0
1501822123521377086,,3857,,1501822123,521377086,"""gps""",,0,0,42.3059704455,-83.2448321321,156.018837478,"[0.0, 0.0, 0.0, 0.0, 0.0, 0.0, 0.0, 0.0, 0.0]",0
1501822123529330968,,3923,,1501822123,529330968,"""gps""",,0,0,42.3059704469,-83.2448321263,156.018856091,"[0.0, 0.0, 0.0, 0.0, 0.0, 0.0, 0.0, 0.0, 0.0]",0
1501822123539449930,,4000,,1501822123,539449930,"""gps""",,0,0,42.305970451,-83.2448321087,156.018893709,"[0.0, 0.0, 0.0, 0.0, 0.0, 0.0, 0.0, 0.0, 0.0]",0
1501822123541352033,,4021,,1501822123,541352033,"""gps""",,0,0,42.3059704524,-83.2448321029,156.018914411,"[0.0, 0.0, 0.0, 0.0, 0.0, 0.0, 0.0, 0.0, 0.0]",0
1501822123549443006,,4086,,1501822123,549443006,"""gps""",,0,0,42.3059704552,-83.2448320912,156.018935891,"[0.0, 0.0, 0.0, 0.0, 0.0, 0.0, 0.0, 0.0, 0.0]",0
1501822123551374912,,4109,,1501822123,551374912,"""gps""",,0,0,42.3059704552,-83.2448320912,156.018958615,"[0.0, 0.0, 0.0, 0.0, 0.0, 0.0, 0.0, 0.0, 0.0]",0
1501822123559442996,,4162,,1501822123,559442996,"""gps""",,0,0,42.3059704579,-83.2448320795,156.018981147,"[0.0, 0.0, 0.0, 0.0, 0.0, 0.0, 0.0, 0.0, 0.0]",0
1501822123561387062,,4184,,1501822123,561387062,"""gps""",,0,0,42.3059704593,-83.2448320737,156.019003791,"[0.0, 0.0, 0.0, 0.0, 0.0, 0.0, 0.0, 0.0, 0.0]",0
1501822123569431066,,4248,,1501822123,569431066,"""gps""",,0,0,42.3059704621,-83.244832062,156.01902616,"[0.0, 0.0, 0.0, 0.0, 0.0, 0.0, 0.0, 0.0, 0.0]",0
1501822123571379899,,4270,,1501822123,571379899,"""gps""",,0,0,42.3059704635,-83.2448320561,156.019049292,"[0.0, 0.0, 0.0, 0.0, 0.0, 0.0, 0.0, 0.0, 0.0]",0
1501822123589358091,,4327,,1501822123,589358091,"""gps""",,0,0,42.305970469,-83.2448320328,156.019127014,"[0.0, 0.0, 0.0, 0.0, 0.0, 0.0, 0.0, 0.0, 0.0]",0
1501822123591397047,,4349,,1501822123,591397047,"""gps""",,0,0,42.3059704704,-83.244832027,156.019153861,"[0.0, 0.0, 0.0, 0.0, 0.0, 0.0, 0.0, 0.0, 0.0]",0
1501822123599376916,,4414,,1501822123,599376916,"""gps""",,0,0,42.3059704718,-83.2448320212,156.019180167,"[0.0, 0.0, 0.0, 0.0, 0.0, 0.0, 0.0, 0.0, 0.0]",0
1501822123601402997,,4435,,1501822123,601402997,"""gps""",,0,0,42.3059704745,-83.2448320096,156.019206366,"[0.0, 0.0, 0.0, 0.0, 0.0, 0.0, 0.0, 0.0, 0.0]",0
1501822123609314918,,4500,,1501822123,609314918,"""gps""",,0,0,42.3059704773,-83.2448319979,156.019233858,"[0.0, 0.0, 0.0, 0.0, 0.0, 0.0, 0.0, 0.0, 0.0]",0
1501822123611346006,,4522,,1501822123,611346006,"""gps""",,0,0,42.305970232,-83.2448317777,156.020364195,"[0.0, 0.0, 0.0, 0.0, 0.0, 0.0, 0.0, 0.0, 0.0]",0
1501822123619333982,,4588,,1501822123,619333982,"""gps""",,0,0,42.3059702372,-83.2448317718,156.020387822,"[0.0, 0.0, 0.0, 0.0, 0.0, 0.0, 0.0, 0.0, 0.0]",0
1501822123621347904,,4608,,1501822123,621347904,"""gps""",,0,0,42.3059702425,-83.2448317659,156.020412449,"[0.0, 0.0, 0.0, 0.0, 0.0, 0.0, 0.0, 0.0, 0.0]",0
1501822123629312038,,4674,,1501822123,629312038,"""gps""",,0,0,42.3059702478,-83.2448317599,156.020437469,"[0.0, 0.0, 0.0, 0.0, 0.0, 0.0, 0.0, 0.0, 0.0]",0
1501822123631386041,,4695,,1501822123,631386041,"""gps""",,0,0,42.3059702531,-83.2448317539,156.020462144,"[0.0, 0.0, 0.0, 0.0, 0.0, 0.0, 0.0, 0.0, 0.0]",0
1501822123639317035,,4761,,1501822123,639317035,"""gps""",,0,0,42.3059702584,-83.2448317477,156.02048688,"[0.0, 0.0, 0.0, 0.0, 0.0, 0.0, 0.0, 0.0, 0.0]",0
1501822123641346931,,4781,,1501822123,641346931,"""gps""",,0,0,42.3059702637,-83.2448317414,156.020511856,"[0.0, 0.0, 0.0, 0.0, 0.0, 0.0, 0.0, 0.0, 0.0]",0
1501822123649305105,,4847,,1501822123,649305105,"""gps""",,0,0,42.3059702691,-83.244831735,156.020538085,"[0.0, 0.0, 0.0, 0.0, 0.0, 0.0, 0.0, 0.0, 0.0]",0
1501822123651346921,,4867,,1501822123,651346921,"""gps""",,0,0,42.3059702745,-83.2448317286,156.020564488,"[0.0, 0.0, 0.0, 0.0, 0.0, 0.0, 0.0, 0.0, 0.0]",0
1501822123659332036,,4934,,1501822123,659332036,"""gps""",,0,0,42.3059702799,-83.244831722,156.020591218,"[0.0, 0.0, 0.0, 0.0, 0.0, 0.0, 0.0, 0.0, 0.0]",0
1501822123661343097,,4955,,1501822123,661343097,"""gps""",,0,0,42.3059702853,-83.2448317154,156.020617523,"[0.0, 0.0, 0.0, 0.0, 0.0, 0.0, 0.0, 0.0, 0.0]",0
1501822123669425964,,5020,,1501822123,669425964,"""gps""",,0,0,42.3059702907,-83.2448317087,156.020644057,"[0.0, 0.0, 0.0, 0.0, 0.0, 0.0, 0.0, 0.0, 0.0]",0
1501822123671366930,,5043,,1501822123,671366930,"""gps""",,0,0,42.3059702961,-83.2448317019,156.020670428,"[0.0, 0.0, 0.0, 0.0, 0.0, 0.0, 0.0, 0.0, 0.0]",0
1501822123679327964,,5106,,1501822123,679327964,"""gps""",,0,0,42.3059703015,-83.244831695,156.020696896,"[0.0, 0.0, 0.0, 0.0, 0.0, 0.0, 0.0, 0.0, 0.0]",0
1501822123681356906,,5129,,1501822123,681356906,"""gps""",,0,0,42.3059703069,-83.2448316881,156.020724288,"[0.0, 0.0, 0.0, 0.0, 0.0, 0.0, 0.0, 0.0, 0.0]",0
1501822123689327955,,5192,,1501822123,689327955,"""gps""",,0,0,42.3059703124,-83.244831681,156.020751944,"[0.0, 0.0, 0.0, 0.0, 0.0, 0.0, 0.0, 0.0, 0.0]",0
1501822123691345930,,5215,,1501822123,691345930,"""gps""",,0,0,42.3059703178,-83.2448316738,156.0207796,"[0.0, 0.0, 0.0, 0.0, 0.0, 0.0, 0.0, 0.0, 0.0]",0
1501822123699333906,,5278,,1501822123,699333906,"""gps""",,0,0,42.3059703233,-83.2448316665,156.020806688,"[0.0, 0.0, 0.0, 0.0, 0.0, 0.0, 0.0, 0.0, 0.0]",0
1501822123701350927,,5301,,1501822123,701350927,"""gps""",,0,0,42.3059703288,-83.2448316591,156.020833086,"[0.0, 0.0, 0.0, 0.0, 0.0, 0.0, 0.0, 0.0, 0.0]",0
1501822123709311008,,5366,,1501822123,709311008,"""gps""",,0,0,42.3059703342,-83.2448316516,156.020859516,"[0.0, 0.0, 0.0, 0.0, 0.0, 0.0, 0.0, 0.0, 0.0]",0
1501822123711355924,,5388,,1501822123,711355924,"""gps""",,0,0,42.3059703397,-83.244831644,156.02088603,"[0.0, 0.0, 0.0, 0.0, 0.0, 0.0, 0.0, 0.0, 0.0]",0
1501822123719357013,,5452,,1501822123,719357013,"""gps""",,0,0,42.3059703453,-83.2448316363,156.020912846,"[0.0, 0.0, 0.0, 0.0, 0.0, 0.0, 0.0, 0.0, 0.0]",0
1501822123721354007,,5474,,1501822123,721354007,"""gps""",,0,0,42.3059703508,-83.2448316286,156.020939188,"[0.0, 0.0, 0.0, 0.0, 0.0, 0.0, 0.0, 0.0, 0.0]",0
1501822123729341983,,5539,,1501822123,729341983,"""gps""",,0,0,42.3059703564,-83.2448316207,156.020966107,"[0.0, 0.0, 0.0, 0.0, 0.0, 0.0, 0.0, 0.0, 0.0]",0
1501822123731359004,,5560,,1501822123,731359004,"""gps""",,0,0,42.3059703619,-83.2448316128,156.020993125,"[0.0, 0.0, 0.0, 0.0, 0.0, 0.0, 0.0, 0.0, 0.0]",0
1501822123739334106,,5626,,1501822123,739334106,"""gps""",,0,0,42.3059703675,-83.2448316048,156.021020887,"[0.0, 0.0, 0.0, 0.0, 0.0, 0.0, 0.0, 0.0, 0.0]",0
1501822123741398096,,5647,,1501822123,741398096,"""gps""",,0,0,42.3059703731,-83.2448315967,156.021049677,"[0.0, 0.0, 0.0, 0.0, 0.0, 0.0, 0.0, 0.0, 0.0]",0
1501822123749355077,,5713,,1501822123,749355077,"""gps""",,0,0,42.3059703787,-83.2448315885,156.021079352,"[0.0, 0.0, 0.0, 0.0, 0.0, 0.0, 0.0, 0.0, 0.0]",0
1501822123751353025,,5733,,1501822123,751353025,"""gps""",,0,0,42.3059703843,-83.2448315801,156.021109905,"[0.0, 0.0, 0.0, 0.0, 0.0, 0.0, 0.0, 0.0, 0.0]",0
1501822123759326934,,5800,,1501822123,759326934,"""gps""",,0,0,42.30597039,-83.2448315717,156.021140246,"[0.0, 0.0, 0.0, 0.0, 0.0, 0.0, 0.0, 0.0, 0.0]",0
1501822123761368036,,5808,,1501822123,761368036,"""gps""",,0,0,42.3059703957,-83.2448315632,156.021170658,"[0.0, 0.0, 0.0, 0.0, 0.0, 0.0, 0.0, 0.0, 0.0]",0
1501822123769381046,,5874,,1501822123,769381046,"""gps""",,0,0,42.3059704014,-83.2448315546,156.021200591,"[0.0, 0.0, 0.0, 0.0, 0.0, 0.0, 0.0, 0.0, 0.0]",0
1501822123771430015,,5895,,1501822123,771430015,"""gps""",,0,0,42.3059704071,-83.2448315459,156.021231097,"[0.0, 0.0, 0.0, 0.0, 0.0, 0.0, 0.0, 0.0, 0.0]",0
1501822123779398918,,5959,,1501822123,779398918,"""gps""",,0,0,42.3059704129,-83.2448315371,156.021262404,"[0.0, 0.0, 0.0, 0.0, 0.0, 0.0, 0.0, 0.0, 0.0]",0
1501822123781363010,,5981,,1501822123,781363010,"""gps""",,0,0,42.3059704187,-83.2448315282,156.021295608,"[0.0, 0.0, 0.0, 0.0, 0.0, 0.0, 0.0, 0.0, 0.0]",0
1501822123789324045,,6045,,1501822123,789324045,"""gps""",,0,0,42.3059704244,-83.2448315193,156.021330067,"[0.0, 0.0, 0.0, 0.0, 0.0, 0.0, 0.0, 0.0, 0.0]",0
1501822123791357040,,6067,,1501822123,791357040,"""gps""",,0,0,42.3059704303,-83.2448315103,156.021365258,"[0.0, 0.0, 0.0, 0.0, 0.0, 0.0, 0.0, 0.0, 0.0]",0
1501822123799319982,,6131,,1501822123,799319982,"""gps""",,0,0,42.3059704361,-83.2448315012,156.021400317,"[0.0, 0.0, 0.0, 0.0, 0.0, 0.0, 0.0, 0.0, 0.0]",0
1501822123801362037,,6154,,1501822123,801362037,"""gps""",,0,0,42.3059704419,-83.244831492,156.02143542,"[0.0, 0.0, 0.0, 0.0, 0.0, 0.0, 0.0, 0.0, 0.0]",0
1501822123809370040,,6218,,1501822123,809370040,"""gps""",,0,0,42.3059704478,-83.2448314827,156.021470662,"[0.0, 0.0, 0.0, 0.0, 0.0, 0.0, 0.0, 0.0, 0.0]",0
1501822123811364889,,6241,,1501822123,811364889,"""gps""",,0,0,42.3059704537,-83.2448314732,156.02150604,"[0.0, 0.0, 0.0, 0.0, 0.0, 0.0, 0.0, 0.0, 0.0]",0
1501822123819334030,,6304,,1501822123,819334030,"""gps""",,0,0,42.3059704597,-83.2448314636,156.021541704,"[0.0, 0.0, 0.0, 0.0, 0.0, 0.0, 0.0, 0.0, 0.0]",0
1501822123821360111,,6327,,1501822123,821360111,"""gps""",,0,0,42.3059704657,-83.2448314539,156.021577868,"[0.0, 0.0, 0.0, 0.0, 0.0, 0.0, 0.0, 0.0, 0.0]",0
1501822123829334974,,6391,,1501822123,829334974,"""gps""",,0,0,42.3059704717,-83.2448314442,156.021615778,"[0.0, 0.0, 0.0, 0.0, 0.0, 0.0, 0.0, 0.0, 0.0]",0
1501822123831356048,,6413,,1501822123,831356048,"""gps""",,0,0,42.3059704777,-83.2448314344,156.021655245,"[0.0, 0.0, 0.0, 0.0, 0.0, 0.0, 0.0, 0.0, 0.0]",0
1501822123839327096,,6436,,1501822123,839327096,"""gps""",,0,0,42.3059704838,-83.2448314246,156.021695524,"[0.0, 0.0, 0.0, 0.0, 0.0, 0.0, 0.0, 0.0, 0.0]",0
1501822123841363906,,6458,,1501822123,841363906,"""gps""",,0,0,42.3059704899,-83.2448314146,156.021736451,"[0.0, 0.0, 0.0, 0.0, 0.0, 0.0, 0.0, 0.0, 0.0]",0
1501822123849330902,,6482,,1501822123,849330902,"""gps""",,0,0,42.305970496,-83.2448314045,156.021778046,"[0.0, 0.0, 0.0, 0.0, 0.0, 0.0, 0.0, 0.0, 0.0]",0
1501822123851399898,,6502,,1501822123,851399898,"""gps""",,0,0,42.3059705021,-83.2448313943,156.021819541,"[0.0, 0.0, 0.0, 0.0, 0.0, 0.0, 0.0, 0.0, 0.0]",0
1501822123859338998,,6565,,1501822123,859338998,"""gps""",,0,0,42.3059705083,-83.2448313839,156.02186013,"[0.0, 0.0, 0.0, 0.0, 0.0, 0.0, 0.0, 0.0, 0.0]",0
1501822123861365079,,6585,,1501822123,861365079,"""gps""",,0,0,42.3059705145,-83.2448313734,156.021899788,"[0.0, 0.0, 0.0, 0.0, 0.0, 0.0, 0.0, 0.0, 0.0]",0
1501822123869344949,,6652,,1501822123,869344949,"""gps""",,0,0,42.3059705206,-83.2448313628,156.02193933,"[0.0, 0.0, 0.0, 0.0, 0.0, 0.0, 0.0, 0.0, 0.0]",0
1501822123871364116,,6672,,1501822123,871364116,"""gps""",,0,0,42.3059705268,-83.2448313521,156.021980694,"[0.0, 0.0, 0.0, 0.0, 0.0, 0.0, 0.0, 0.0, 0.0]",0
1501822123879348039,,6738,,1501822123,879348039,"""gps""",,0,0,42.3059705331,-83.2448313414,156.0220252,"[0.0, 0.0, 0.0, 0.0, 0.0, 0.0, 0.0, 0.0, 0.0]",0
1501822123881359100,,6758,,1501822123,881359100,"""gps""",,0,0,42.3059705394,-83.2448313306,156.022072976,"[0.0, 0.0, 0.0, 0.0, 0.0, 0.0, 0.0, 0.0, 0.0]",0
1501822123889358997,,6824,,1501822123,889358997,"""gps""",,0,0,42.3059705457,-83.2448313197,156.022122865,"[0.0, 0.0, 0.0, 0.0, 0.0, 0.0, 0.0, 0.0, 0.0]",0
1501822123891374111,,6845,,1501822123,891374111,"""gps""",,0,0,42.305970552,-83.2448313088,156.022172574,"[0.0, 0.0, 0.0, 0.0, 0.0, 0.0, 0.0, 0.0, 0.0]",0
1501822123899326086,,6902,,1501822123,899326086,"""gps""",,0,0,42.3059705583,-83.2448312976,156.022221498,"[0.0, 0.0, 0.0, 0.0, 0.0, 0.0, 0.0, 0.0, 0.0]",0
1501822123901367902,,6923,,1501822123,901367902,"""gps""",,0,0,42.3059705646,-83.2448312864,156.022269323,"[0.0, 0.0, 0.0, 0.0, 0.0, 0.0, 0.0, 0.0, 0.0]",0
1501822123909327983,,6989,,1501822123,909327983,"""gps""",,0,0,42.305970571,-83.244831275,156.022317595,"[0.0, 0.0, 0.0, 0.0, 0.0, 0.0, 0.0, 0.0, 0.0]",0
1501822123911370992,,7012,,1501822123,911370992,"""gps""",,0,0,42.3059705774,-83.2448312635,156.022367472,"[0.0, 0.0, 0.0, 0.0, 0.0, 0.0, 0.0, 0.0, 0.0]",0
1501822123919384002,,7075,,1501822123,919384002,"""gps""",,0,0,42.3059705838,-83.2448312519,156.02242042,"[0.0, 0.0, 0.0, 0.0, 0.0, 0.0, 0.0, 0.0, 0.0]",0
1501822123921372890,,7098,,1501822123,921372890,"""gps""",,0,0,42.3059705902,-83.2448312403,156.022476299,"[0.0, 0.0, 0.0, 0.0, 0.0, 0.0, 0.0, 0.0, 0.0]",0
1501822123929358005,,7161,,1501822123,929358005,"""gps""",,0,0,42.3059705967,-83.2448312285,156.022534798,"[0.0, 0.0, 0.0, 0.0, 0.0, 0.0, 0.0, 0.0, 0.0]",0
1501822123931365966,,7184,,1501822123,931365966,"""gps""",,0,0,42.3059706032,-83.2448312167,156.022593884,"[0.0, 0.0, 0.0, 0.0, 0.0, 0.0, 0.0, 0.0, 0.0]",0
1501822123939343929,,7248,,1501822123,939343929,"""gps""",,0,0,42.3059706097,-83.2448312048,156.022652235,"[0.0, 0.0, 0.0, 0.0, 0.0, 0.0, 0.0, 0.0, 0.0]",0
1501822123941358089,,7270,,1501822123,941358089,"""gps""",,0,0,42.3059706162,-83.2448311927,156.022709643,"[0.0, 0.0, 0.0, 0.0, 0.0, 0.0, 0.0, 0.0, 0.0]",0
1501822123949357032,,7334,,1501822123,949357032,"""gps""",,0,0,42.3059706228,-83.2448311806,156.022766851,"[0.0, 0.0, 0.0, 0.0, 0.0, 0.0, 0.0, 0.0, 0.0]",0
1501822123951363086,,7356,,1501822123,951363086,"""gps""",,0,0,42.3059706294,-83.2448311683,156.022824816,"[0.0, 0.0, 0.0, 0.0, 0.0, 0.0, 0.0, 0.0, 0.0]",0
1501822123959348917,,7421,,1501822123,959348917,"""gps""",,0,0,42.305970636,-83.2448311559,156.02288373,"[0.0, 0.0, 0.0, 0.0, 0.0, 0.0, 0.0, 0.0, 0.0]",0
1501822123961370944,,7443,,1501822123,961370944,"""gps""",,0,0,42.3059706427,-83.2448311434,156.02294459,"[0.0, 0.0, 0.0, 0.0, 0.0, 0.0, 0.0, 0.0, 0.0]",0
1501822123969341039,,7508,,1501822123,969341039,"""gps""",,0,0,42.3059706493,-83.2448311308,156.023007169,"[0.0, 0.0, 0.0, 0.0, 0.0, 0.0, 0.0, 0.0, 0.0]",0
1501822123971384048,,7529,,1501822123,971384048,"""gps""",,0,0,42.305970656,-83.2448311181,156.023070549,"[0.0, 0.0, 0.0, 0.0, 0.0, 0.0, 0.0, 0.0, 0.0]",0
1501822123979336977,,7595,,1501822123,979336977,"""gps""",,0,0,42.3059706627,-83.2448311053,156.023133074,"[0.0, 0.0, 0.0, 0.0, 0.0, 0.0, 0.0, 0.0, 0.0]",0
1501822123981373071,,7616,,1501822123,981373071,"""gps""",,0,0,42.3059706695,-83.2448310923,156.023194342,"[0.0, 0.0, 0.0, 0.0, 0.0, 0.0, 0.0, 0.0, 0.0]",0
1501822123989340066,,7682,,1501822123,989340066,"""gps""",,0,0,42.3059706762,-83.2448310792,156.023255256,"[0.0, 0.0, 0.0, 0.0, 0.0, 0.0, 0.0, 0.0, 0.0]",0
1501822123991416931,,7702,,1501822123,991416931,"""gps""",,0,0,42.305970683,-83.2448310661,156.023316148,"[0.0, 0.0, 0.0, 0.0, 0.0, 0.0, 0.0, 0.0, 0.0]",0
1501822123999341964,,7768,,1501822123,999341964,"""gps""",,0,0,42.3059706898,-83.2448310528,156.02337839,"[0.0, 0.0, 0.0, 0.0, 0.0, 0.0, 0.0, 0.0, 0.0]",0
1501822124001374959,,7788,,1501822124,1374959,"""gps""",,0,0,42.3059706966,-83.2448310394,156.023442752,"[0.0, 0.0, 0.0, 0.0, 0.0, 0.0, 0.0, 0.0, 0.0]",0
1501822124009363889,,7855,,1501822124,9363889,"""gps""",,0,0,42.3059707035,-83.244831026,156.023508653,"[0.0, 0.0, 0.0, 0.0, 0.0, 0.0, 0.0, 0.0, 0.0]",0
1501822124011374950,,7876,,1501822124,11374950,"""gps""",,0,0,42.3059707103,-83.2448310124,156.0235755,"[0.0, 0.0, 0.0, 0.0, 0.0, 0.0, 0.0, 0.0, 0.0]",0
1501822124019336938,,7940,,1501822124,19336938,"""gps""",,0,0,42.3059707172,-83.2448309986,156.02364204,"[0.0, 0.0, 0.0, 0.0, 0.0, 0.0, 0.0, 0.0, 0.0]",0
1501822124021394968,,7962,,1501822124,21394968,"""gps""",,0,0,42.3059707241,-83.2448309848,156.023707416,"[0.0, 0.0, 0.0, 0.0, 0.0, 0.0, 0.0, 0.0, 0.0]",0
1501822124029377937,,8026,,1501822124,29377937,"""gps""",,0,0,42.3059707311,-83.2448309708,156.023771844,"[0.0, 0.0, 0.0, 0.0, 0.0, 0.0, 0.0, 0.0, 0.0]",0
1501822124031367063,,8049,,1501822124,31367063,"""gps""",,0,0,42.305970738,-83.2448309567,156.023835954,"[0.0, 0.0, 0.0, 0.0, 0.0, 0.0, 0.0, 0.0, 0.0]",0
1501822124039349079,,8112,,1501822124,39349079,"""gps""",,0,0,42.305970745,-83.2448309425,156.023901847,"[0.0, 0.0, 0.0, 0.0, 0.0, 0.0, 0.0, 0.0, 0.0]",0
1501822124041378974,,8135,,1501822124,41378974,"""gps""",,0,0,42.305970752,-83.2448309283,156.023970539,"[0.0, 0.0, 0.0, 0.0, 0.0, 0.0, 0.0, 0.0, 0.0]",0
1501822124049340963,,8198,,1501822124,49340963,"""gps""",,0,0,42.3059707591,-83.2448309138,156.024041125,"[0.0, 0.0, 0.0, 0.0, 0.0, 0.0, 0.0, 0.0, 0.0]",0
1501822124051366090,,8221,,1501822124,51366090,"""gps""",,0,0,42.3059707662,-83.2448308993,156.024111753,"[0.0, 0.0, 0.0, 0.0, 0.0, 0.0, 0.0, 0.0, 0.0]",0
1501822124059355974,,8285,,1501822124,59355974,"""gps""",,0,0,42.3059707733,-83.2448308847,156.024181085,"[0.0, 0.0, 0.0, 0.0, 0.0, 0.0, 0.0, 0.0, 0.0]",0
1501822124061378955,,8308,,1501822124,61378955,"""gps""",,0,0,42.3059707804,-83.2448308699,156.024248649,"[0.0, 0.0, 0.0, 0.0, 0.0, 0.0, 0.0, 0.0, 0.0]",0
1501822124069348096,,8366,,1501822124,69348096,"""gps""",,0,0,42.3059707875,-83.244830855,156.02431528,"[0.0, 0.0, 0.0, 0.0, 0.0, 0.0, 0.0, 0.0, 0.0]",0
1501822124071391105,,8388,,1501822124,71391105,"""gps""",,0,0,42.3059707947,-83.24483084,156.024382754,"[0.0, 0.0, 0.0, 0.0, 0.0, 0.0, 0.0, 0.0, 0.0]",0
1501822124079349040,,8452,,1501822124,79349040,"""gps""",,0,0,42.3059708019,-83.2448308249,156.024451446,"[0.0, 0.0, 0.0, 0.0, 0.0, 0.0, 0.0, 0.0, 0.0]",0
1501822124081368923,,8474,,1501822124,81368923,"""gps""",,0,0,42.3059708092,-83.2448308096,156.024522332,"[0.0, 0.0, 0.0, 0.0, 0.0, 0.0, 0.0, 0.0, 0.0]",0
1501822124089407920,,8540,,1501822124,89407920,"""gps""",,0,0,42.3059708165,-83.2448307943,156.024594381,"[0.0, 0.0, 0.0, 0.0, 0.0, 0.0, 0.0, 0.0, 0.0]",0
1501822124091386079,,8560,,1501822124,91386079,"""gps""",,0,0,42.3059708238,-83.2448307788,156.024666829,"[0.0, 0.0, 0.0, 0.0, 0.0, 0.0, 0.0, 0.0, 0.0]",0
1501822124099355936,,8626,,1501822124,99355936,"""gps""",,0,0,42.3059708312,-83.2448307633,156.024738761,"[0.0, 0.0, 0.0, 0.0, 0.0, 0.0, 0.0, 0.0, 0.0]",0
1501822124101422071,,8647,,1501822124,101422071,"""gps""",,0,0,42.3059708385,-83.2448307476,156.024810523,"[0.0, 0.0, 0.0, 0.0, 0.0, 0.0, 0.0, 0.0, 0.0]",0
1501822124109344005,,8714,,1501822124,109344005,"""gps""",,0,0,42.3059708459,-83.2448307317,156.024882416,"[0.0, 0.0, 0.0, 0.0, 0.0, 0.0, 0.0, 0.0, 0.0]",0
1501822124111378908,,8734,,1501822124,111378908,"""gps""",,0,0,42.3059708534,-83.2448307158,156.024955063,"[0.0, 0.0, 0.0, 0.0, 0.0, 0.0, 0.0, 0.0, 0.0]",0
1501822124119357109,,8800,,1501822124,119357109,"""gps""",,0,0,42.3059708608,-83.2448306997,156.025029527,"[0.0, 0.0, 0.0, 0.0, 0.0, 0.0, 0.0, 0.0, 0.0]",0
1501822124121381044,,8820,,1501822124,121381044,"""gps""",,0,0,42.3059708683,-83.2448306836,156.025105476,"[0.0, 0.0, 0.0, 0.0, 0.0, 0.0, 0.0, 0.0, 0.0]",0
1501822124129344940,,8886,,1501822124,129344940,"""gps""",,0,0,42.3059708759,-83.2448306673,156.025182506,"[0.0, 0.0, 0.0, 0.0, 0.0, 0.0, 0.0, 0.0, 0.0]",0
1501822124131370067,,8903,,1501822124,131370067,"""gps""",,0,0,42.3059708834,-83.2448306509,156.025259515,"[0.0, 0.0, 0.0, 0.0, 0.0, 0.0, 0.0, 0.0, 0.0]",0
1501822124139409065,,8968,,1501822124,139409065,"""gps""",,0,0,42.305970891,-83.2448306343,156.025337066,"[0.0, 0.0, 0.0, 0.0, 0.0, 0.0, 0.0, 0.0, 0.0]",0
1501822124141382932,,8990,,1501822124,141382932,"""gps""",,0,0,42.3059708987,-83.2448306177,156.025414622,"[0.0, 0.0, 0.0, 0.0, 0.0, 0.0, 0.0, 0.0, 0.0]",0
1501822124149374008,,9054,,1501822124,149374008,"""gps""",,0,0,42.3059709063,-83.2448306009,156.025492367,"[0.0, 0.0, 0.0, 0.0, 0.0, 0.0, 0.0, 0.0, 0.0]",0
1501822124151381969,,9077,,1501822124,151381969,"""gps""",,0,0,42.305970914,-83.2448305839,156.025571506,"[0.0, 0.0, 0.0, 0.0, 0.0, 0.0, 0.0, 0.0, 0.0]",0
1501822124159367084,,9141,,1501822124,159367084,"""gps""",,0,0,42.3059709217,-83.2448305669,156.025652919,"[0.0, 0.0, 0.0, 0.0, 0.0, 0.0, 0.0, 0.0, 0.0]",0
1501822124161375999,,9163,,1501822124,161375999,"""gps""",,0,0,42.3059709294,-83.2448305497,156.025735247,"[0.0, 0.0, 0.0, 0.0, 0.0, 0.0, 0.0, 0.0, 0.0]",0
1501822124169353961,,9212,,1501822124,169353961,"""gps""",,0,0,42.3059709372,-83.2448305324,156.025817289,"[0.0, 0.0, 0.0, 0.0, 0.0, 0.0, 0.0, 0.0, 0.0]",0
1501822124171377897,,9235,,1501822124,171377897,"""gps""",,0,0,42.305970945,-83.244830515,156.025898765,"[0.0, 0.0, 0.0, 0.0, 0.0, 0.0, 0.0, 0.0, 0.0]",0
1501822124179358959,,9299,,1501822124,179358959,"""gps""",,0,0,42.3059709528,-83.2448304974,156.02597986,"[0.0, 0.0, 0.0, 0.0, 0.0, 0.0, 0.0, 0.0, 0.0]",0
1501822124181380987,,9321,,1501822124,181380987,"""gps""",,0,0,42.3059709606,-83.2448304797,156.026061668,"[0.0, 0.0, 0.0, 0.0, 0.0, 0.0, 0.0, 0.0, 0.0]",0
1501822124199357986,,9365,,1501822124,199357986,"""gps""",,0,0,42.3059709843,-83.2448304258,156.026312617,"[0.0, 0.0, 0.0, 0.0, 0.0, 0.0, 0.0, 0.0, 0.0]",0
1501822124201384067,,9381,,1501822124,201384067,"""gps""",,0,0,42.3059709923,-83.2448304076,156.026396326,"[0.0, 0.0, 0.0, 0.0, 0.0, 0.0, 0.0, 0.0, 0.0]",0
1501822124209358930,,9446,,1501822124,209358930,"""gps""",,0,0,42.3059710003,-83.2448303892,156.026478831,"[0.0, 0.0, 0.0, 0.0, 0.0, 0.0, 0.0, 0.0, 0.0]",0
1501822124211427927,,9468,,1501822124,211427927,"""gps""",,0,0,42.3059710083,-83.2448303707,156.026561507,"[0.0, 0.0, 0.0, 0.0, 0.0, 0.0, 0.0, 0.0, 0.0]",0
1501822124219363927,,9533,,1501822124,219363927,"""gps""",,0,0,42.3059710163,-83.2448303521,156.026644561,"[0.0, 0.0, 0.0, 0.0, 0.0, 0.0, 0.0, 0.0, 0.0]",0
1501822124221390008,,9554,,1501822124,221390008,"""gps""",,0,0,42.3059710244,-83.2448303333,156.026727589,"[0.0, 0.0, 0.0, 0.0, 0.0, 0.0, 0.0, 0.0, 0.0]",0
1501822124229357957,,9620,,1501822124,229357957,"""gps""",,0,0,42.3059710326,-83.2448303144,156.026810139,"[0.0, 0.0, 0.0, 0.0, 0.0, 0.0, 0.0, 0.0, 0.0]",0
1501822124231406927,,9640,,1501822124,231406927,"""gps""",,0,0,42.3059710407,-83.2448302953,156.026891975,"[0.0, 0.0, 0.0, 0.0, 0.0, 0.0, 0.0, 0.0, 0.0]",0
1501822124239367961,,9701,,1501822124,239367961,"""gps""",,0,0,42.3059710489,-83.2448302762,156.026973775,"[0.0, 0.0, 0.0, 0.0, 0.0, 0.0, 0.0, 0.0, 0.0]",0
1501822124241390943,,9721,,1501822124,241390943,"""gps""",,0,0,42.305971057,-83.2448302568,156.027055075,"[0.0, 0.0, 0.0, 0.0, 0.0, 0.0, 0.0, 0.0, 0.0]",0
1501822124251394987,,9796,,1501822124,251394987,"""gps""",,0,0,42.3059710735,-83.2448302177,156.027216364,"[0.0, 0.0, 0.0, 0.0, 0.0, 0.0, 0.0, 0.0, 0.0]",0
1501822124259350061,,9862,,1501822124,259350061,"""gps""",,0,0,42.3059710818,-83.244830198,156.027296665,"[0.0, 0.0, 0.0, 0.0, 0.0, 0.0, 0.0, 0.0, 0.0]",0
1501822124261399030,,9885,,1501822124,261399030,"""gps""",,0,0,42.3059710901,-83.244830178,156.027376664,"[0.0, 0.0, 0.0, 0.0, 0.0, 0.0, 0.0, 0.0, 0.0]",0
1501822124269360065,,9948,,1501822124,269360065,"""gps""",,0,0,42.3059710984,-83.244830158,156.027456666,"[0.0, 0.0, 0.0, 0.0, 0.0, 0.0, 0.0, 0.0, 0.0]",0
1501822124271382093,,9971,,1501822124,271382093,"""gps""",,0,0,42.3059711068,-83.2448301378,156.027537181,"[0.0, 0.0, 0.0, 0.0, 0.0, 0.0, 0.0, 0.0, 0.0]",0
1501822124279356956,,10034,,1501822124,279356956,"""gps""",,0,0,42.3059711152,-83.2448301175,156.027617373,"[0.0, 0.0, 0.0, 0.0, 0.0, 0.0, 0.0, 0.0, 0.0]",0
1501822124281395912,,10057,,1501822124,281395912,"""gps""",,0,0,42.3059711236,-83.244830097,156.027696267,"[0.0, 0.0, 0.0, 0.0, 0.0, 0.0, 0.0, 0.0, 0.0]",0
1501822124289401054,,10121,,1501822124,289401054,"""gps""",,0,0,42.305971132,-83.2448300764,156.027775306,"[0.0, 0.0, 0.0, 0.0, 0.0, 0.0, 0.0, 0.0, 0.0]",0
1501822124291395902,,10143,,1501822124,291395902,"""gps""",,0,0,42.3059711405,-83.2448300557,156.027855155,"[0.0, 0.0, 0.0, 0.0, 0.0, 0.0, 0.0, 0.0, 0.0]",0
1501822124301400899,,10213,,1501822124,301400899,"""gps""",,0,0,42.3059711575,-83.2448300137,156.028016112,"[0.0, 0.0, 0.0, 0.0, 0.0, 0.0, 0.0, 0.0, 0.0]",0
1501822124309355020,,10274,,1501822124,309355020,"""gps""",,0,0,42.305971166,-83.2448299925,156.02809586,"[0.0, 0.0, 0.0, 0.0, 0.0, 0.0, 0.0, 0.0, 0.0]",0
1501822124311466932,,10297,,1501822124,311466932,"""gps""",,0,0,42.3059711746,-83.2448299711,156.028174723,"[0.0, 0.0, 0.0, 0.0, 0.0, 0.0, 0.0, 0.0, 0.0]",0
1501822124319968938,,10356,,1501822124,319968938,"""gps""",,0,0,42.3059711832,-83.2448299496,156.028252959,"[0.0, 0.0, 0.0, 0.0, 0.0, 0.0, 0.0, 0.0, 0.0]",0
1501822124321417093,,10371,,1501822124,321417093,"""gps""",,0,0,42.3059711919,-83.244829928,156.028331688,"[0.0, 0.0, 0.0, 0.0, 0.0, 0.0, 0.0, 0.0, 0.0]",0
1501822124329355955,,10436,,1501822124,329355955,"""gps""",,0,0,42.3059712005,-83.2448299062,156.02841045,"[0.0, 0.0, 0.0, 0.0, 0.0, 0.0, 0.0, 0.0, 0.0]",0
1501822124331394910,,10457,,1501822124,331394910,"""gps""",,0,0,42.3059712092,-83.2448298843,156.028488784,"[0.0, 0.0, 0.0, 0.0, 0.0, 0.0, 0.0, 0.0, 0.0]",0
1501822124339366912,,10523,,1501822124,339366912,"""gps""",,0,0,42.305971218,-83.2448298622,156.028566493,"[0.0, 0.0, 0.0, 0.0, 0.0, 0.0, 0.0, 0.0, 0.0]",0
1501822124341413974,,10544,,1501822124,341413974,"""gps""",,0,0,42.3059712268,-83.2448298399,156.028644349,"[0.0, 0.0, 0.0, 0.0, 0.0, 0.0, 0.0, 0.0, 0.0]",0
1501822124349447965,,10610,,1501822124,349447965,"""gps""",,0,0,42.3059712356,-83.2448298176,156.028722235,"[0.0, 0.0, 0.0, 0.0, 0.0, 0.0, 0.0, 0.0, 0.0]",0
1501822124351459980,,10631,,1501822124,351459980,"""gps""",,0,0,42.3059712444,-83.244829795,156.028799641,"[0.0, 0.0, 0.0, 0.0, 0.0, 0.0, 0.0, 0.0, 0.0]",0
1501822124359421968,,10697,,1501822124,359421968,"""gps""",,0,0,42.3059712533,-83.2448297723,156.028876957,"[0.0, 0.0, 0.0, 0.0, 0.0, 0.0, 0.0, 0.0, 0.0]",0
1501822124361407041,,10718,,1501822124,361407041,"""gps""",,0,0,42.3059712622,-83.2448297495,156.02895393,"[0.0, 0.0, 0.0, 0.0, 0.0, 0.0, 0.0, 0.0, 0.0]",0
1501822124369370937,,10783,,1501822124,369370937,"""gps""",,0,0,42.3059712711,-83.2448297265,156.029030758,"[0.0, 0.0, 0.0, 0.0, 0.0, 0.0, 0.0, 0.0, 0.0]",0
1501822124371398925,,10804,,1501822124,371398925,"""gps""",,0,0,42.3059712801,-83.2448297033,156.029107614,"[0.0, 0.0, 0.0, 0.0, 0.0, 0.0, 0.0, 0.0, 0.0]",0
1501822124379354953,,10867,,1501822124,379354953,"""gps""",,0,0,42.3059712891,-83.24482968,156.029184172,"[0.0, 0.0, 0.0, 0.0, 0.0, 0.0, 0.0, 0.0, 0.0]",0
1501822124381395101,,10885,,1501822124,381395101,"""gps""",,0,0,42.3059712982,-83.2448296565,156.029260509,"[0.0, 0.0, 0.0, 0.0, 0.0, 0.0, 0.0, 0.0, 0.0]",0
1501822124389437913,,10949,,1501822124,389437913,"""gps""",,0,0,42.3059713073,-83.2448296329,156.029336859,"[0.0, 0.0, 0.0, 0.0, 0.0, 0.0, 0.0, 0.0, 0.0]",0
1501822124391521930,,10972,,1501822124,391521930,"""gps""",,0,0,42.3059713165,-83.2448296091,156.029412539,"[0.0, 0.0, 0.0, 0.0, 0.0, 0.0, 0.0, 0.0, 0.0]",0
1501822124399410963,,11033,,1501822124,399410963,"""gps""",,0,0,42.3059713256,-83.2448295852,156.029487982,"[0.0, 0.0, 0.0, 0.0, 0.0, 0.0, 0.0, 0.0, 0.0]",0
1501822124409571886,,11097,,1501822124,409571886,"""gps""",,0,0,42.3059713441,-83.2448295368,156.029637613,"[0.0, 0.0, 0.0, 0.0, 0.0, 0.0, 0.0, 0.0, 0.0]",0
1501822124411448955,,11117,,1501822124,411448955,"""gps""",,0,0,42.3059713534,-83.2448295124,156.029710695,"[0.0, 0.0, 0.0, 0.0, 0.0, 0.0, 0.0, 0.0, 0.0]",0
1501822124419370889,,11181,,1501822124,419370889,"""gps""",,0,0,42.3059713628,-83.2448294879,156.029783646,"[0.0, 0.0, 0.0, 0.0, 0.0, 0.0, 0.0, 0.0, 0.0]",0
1501822124449408054,,11250,,1501822124,449408054,"""gps""",,0,0,42.3059714103,-83.244829329,156.030241635,"[0.0, 0.0, 0.0, 0.0, 0.0, 0.0, 0.0, 0.0, 0.0]",0
1501822124451400995,,11270,,1501822124,451400995,"""gps""",,0,0,42.3059714183,-83.2448293019,156.030313332,"[0.0, 0.0, 0.0, 0.0, 0.0, 0.0, 0.0, 0.0, 0.0]",0
1501822124459367990,,11337,,1501822124,459367990,"""gps""",,0,0,42.3059714264,-83.2448292747,156.030383385,"[0.0, 0.0, 0.0, 0.0, 0.0, 0.0, 0.0, 0.0, 0.0]",0
1501822124461441040,,11358,,1501822124,461441040,"""gps""",,0,0,42.3059714345,-83.2448292472,156.030452238,"[0.0, 0.0, 0.0, 0.0, 0.0, 0.0, 0.0, 0.0, 0.0]",0
1501822124469355106,,11424,,1501822124,469355106,"""gps""",,0,0,42.3059714427,-83.2448292196,156.030519829,"[0.0, 0.0, 0.0, 0.0, 0.0, 0.0, 0.0, 0.0, 0.0]",0
1501822124471419095,,11444,,1501822124,471419095,"""gps""",,0,0,42.3059714509,-83.2448291918,156.0305857,"[0.0, 0.0, 0.0, 0.0, 0.0, 0.0, 0.0, 0.0, 0.0]",0
1501822124479381084,,11510,,1501822124,479381084,"""gps""",,0,0,42.3059714591,-83.2448291638,156.030649115,"[0.0, 0.0, 0.0, 0.0, 0.0, 0.0, 0.0, 0.0, 0.0]",0
1501822124481430053,,11531,,1501822124,481430053,"""gps""",,0,0,42.3059714673,-83.2448291357,156.030710543,"[0.0, 0.0, 0.0, 0.0, 0.0, 0.0, 0.0, 0.0, 0.0]",0
1501822124489387035,,11596,,1501822124,489387035,"""gps""",,0,0,42.3059714756,-83.2448291073,156.030770408,"[0.0, 0.0, 0.0, 0.0, 0.0, 0.0, 0.0, 0.0, 0.0]",0
1501822124491409063,,11618,,1501822124,491409063,"""gps""",,0,0,42.3059714839,-83.2448290788,156.030828593,"[0.0, 0.0, 0.0, 0.0, 0.0, 0.0, 0.0, 0.0, 0.0]",0
1501822124499376058,,11682,,1501822124,499376058,"""gps""",,0,0,42.3059714922,-83.24482905,156.030884395,"[0.0, 0.0, 0.0, 0.0, 0.0, 0.0, 0.0, 0.0, 0.0]",0
1501822124509419918,,11751,,1501822124,509419918,"""gps""",,0,0,42.305971509,-83.244828992,156.03098849,"[0.0, 0.0, 0.0, 0.0, 0.0, 0.0, 0.0, 0.0, 0.0]",0
1501822124511465072,,11774,,1501822124,511465072,"""gps""",,0,0,42.3059715175,-83.2448289626,156.031035384,"[0.0, 0.0, 0.0, 0.0, 0.0, 0.0, 0.0, 0.0, 0.0]",0
1501822124519406080,,11832,,1501822124,519406080,"""gps""",,0,0,42.3059715247,-83.2448289325,156.031076379,"[0.0, 0.0, 0.0, 0.0, 0.0, 0.0, 0.0, 0.0, 0.0]",0
1501822124521394014,,11852,,1501822124,521394014,"""gps""",,0,0,42.305971532,-83.2448289023,156.031114654,"[0.0, 0.0, 0.0, 0.0, 0.0, 0.0, 0.0, 0.0, 0.0]",0
1501822124529413938,,11904,,1501822124,529413938,"""gps""",,0,0,42.3059715395,-83.2448288719,156.031151406,"[0.0, 0.0, 0.0, 0.0, 0.0, 0.0, 0.0, 0.0, 0.0]",0
1501822124539531946,,11961,,1501822124,539531946,"""gps""",,0,0,42.3059715544,-83.2448288104,156.031220902,"[0.0, 0.0, 0.0, 0.0, 0.0, 0.0, 0.0, 0.0, 0.0]",0
1501822124541527032,,11981,,1501822124,541527032,"""gps""",,0,0,42.3059715618,-83.2448287793,156.031252696,"[0.0, 0.0, 0.0, 0.0, 0.0, 0.0, 0.0, 0.0, 0.0]",0
1501822124549638986,,12048,,1501822124,549638986,"""gps""",,0,0,42.3059715694,-83.244828748,156.031282103,"[0.0, 0.0, 0.0, 0.0, 0.0, 0.0, 0.0, 0.0, 0.0]",0
1501822124551496028,,12067,,1501822124,551496028,"""gps""",,0,0,42.3059715769,-83.2448287165,156.031309235,"[0.0, 0.0, 0.0, 0.0, 0.0, 0.0, 0.0, 0.0, 0.0]",0
1501822124559545993,,12135,,1501822124,559545993,"""gps""",,0,0,42.3059715845,-83.2448286848,156.03133483,"[0.0, 0.0, 0.0, 0.0, 0.0, 0.0, 0.0, 0.0, 0.0]",0
1501822124561470031,,12155,,1501822124,561470031,"""gps""",,0,0,42.3059715921,-83.2448286529,156.031360376,"[0.0, 0.0, 0.0, 0.0, 0.0, 0.0, 0.0, 0.0, 0.0]",0
1501822124569559097,,12221,,1501822124,569559097,"""gps""",,0,0,42.3059715998,-83.2448286207,156.031385362,"[0.0, 0.0, 0.0, 0.0, 0.0, 0.0, 0.0, 0.0, 0.0]",0
1501822124571466922,,12241,,1501822124,571466922,"""gps""",,0,0,42.3059716075,-83.2448285884,156.031410536,"[0.0, 0.0, 0.0, 0.0, 0.0, 0.0, 0.0, 0.0, 0.0]",0
1501822124579564094,,12307,,1501822124,579564094,"""gps""",,0,0,42.3059716153,-83.2448285559,156.031435088,"[0.0, 0.0, 0.0, 0.0, 0.0, 0.0, 0.0, 0.0, 0.0]",0
1501822124581404924,,12327,,1501822124,581404924,"""gps""",,0,0,42.3059716232,-83.2448285231,156.03145965,"[0.0, 0.0, 0.0, 0.0, 0.0, 0.0, 0.0, 0.0, 0.0]",0
1501822124589392900,,12390,,1501822124,589392900,"""gps""",,0,0,42.3059716311,-83.2448284901,156.031483876,"[0.0, 0.0, 0.0, 0.0, 0.0, 0.0, 0.0, 0.0, 0.0]",0
1501822124591404914,,12410,,1501822124,591404914,"""gps""",,0,0,42.3059716391,-83.244828457,156.031507763,"[0.0, 0.0, 0.0, 0.0, 0.0, 0.0, 0.0, 0.0, 0.0]",0
1501822124599374055,,12476,,1501822124,599374055,"""gps""",,0,0,42.3059716471,-83.2448284236,156.031532656,"[0.0, 0.0, 0.0, 0.0, 0.0, 0.0, 0.0, 0.0, 0.0]",0
1501822124601408958,,12497,,1501822124,601408958,"""gps""",,0,0,42.3059716552,-83.24482839,156.03155847,"[0.0, 0.0, 0.0, 0.0, 0.0, 0.0, 0.0, 0.0, 0.0]",0
1501822124609400987,,12558,,1501822124,609400987,"""gps""",,0,0,42.3059716634,-83.2448283562,156.031584635,"[0.0, 0.0, 0.0, 0.0, 0.0, 0.0, 0.0, 0.0, 0.0]",0
1501822124611453056,,12578,,1501822124,611453056,"""gps""",,0,0,42.3059716716,-83.2448283222,156.031611043,"[0.0, 0.0, 0.0, 0.0, 0.0, 0.0, 0.0, 0.0, 0.0]",0
1501822124619371891,,12642,,1501822124,619371891,"""gps""",,0,0,42.3059716799,-83.244828288,156.031638225,"[0.0, 0.0, 0.0, 0.0, 0.0, 0.0, 0.0, 0.0, 0.0]",0
1501822124621403932,,12664,,1501822124,621403932,"""gps""",,0,0,42.3059716883,-83.2448282536,156.031666404,"[0.0, 0.0, 0.0, 0.0, 0.0, 0.0, 0.0, 0.0, 0.0]",0
1501822124629367113,,12728,,1501822124,629367113,"""gps""",,0,0,42.3059716967,-83.244828219,156.031695575,"[0.0, 0.0, 0.0, 0.0, 0.0, 0.0, 0.0, 0.0, 0.0]",0
1501822124631407022,,12751,,1501822124,631407022,"""gps""",,0,0,42.3059717052,-83.2448281843,156.031724802,"[0.0, 0.0, 0.0, 0.0, 0.0, 0.0, 0.0, 0.0, 0.0]",0
1501822124639377117,,12814,,1501822124,639377117,"""gps""",,0,0,42.3059717138,-83.2448281492,156.031754109,"[0.0, 0.0, 0.0, 0.0, 0.0, 0.0, 0.0, 0.0, 0.0]",0
1501822124659425973,,12881,,1501822124,659425973,"""gps""",,0,0,42.3059717487,-83.2448280072,156.031867451,"[0.0, 0.0, 0.0, 0.0, 0.0, 0.0, 0.0, 0.0, 0.0]",0
1501822124661423921,,12903,,1501822124,661423921,"""gps""",,0,0,42.3059717576,-83.2448279711,156.031894801,"[0.0, 0.0, 0.0, 0.0, 0.0, 0.0, 0.0, 0.0, 0.0]",0
1501822124669373035,,12967,,1501822124,669373035,"""gps""",,0,0,42.3059717665,-83.2448279348,156.031920664,"[0.0, 0.0, 0.0, 0.0, 0.0, 0.0, 0.0, 0.0, 0.0]",0
1501822124671401023,,12989,,1501822124,671401023,"""gps""",,0,0,42.3059717754,-83.2448278983,156.03194388,"[0.0, 0.0, 0.0, 0.0, 0.0, 0.0, 0.0, 0.0, 0.0]",0
1501822124679383039,,13038,,1501822124,679383039,"""gps""",,0,0,42.3059717845,-83.2448278616,156.03196359,"[0.0, 0.0, 0.0, 0.0, 0.0, 0.0, 0.0, 0.0, 0.0]",0
1501822124681428909,,13059,,1501822124,681428909,"""gps""",,0,0,42.3059717936,-83.2448278247,156.031979584,"[0.0, 0.0, 0.0, 0.0, 0.0, 0.0, 0.0, 0.0, 0.0]",0
1501822124689383029,,13125,,1501822124,689383029,"""gps""",,0,0,42.3059718027,-83.2448277876,156.031991241,"[0.0, 0.0, 0.0, 0.0, 0.0, 0.0, 0.0, 0.0, 0.0]",0
1501822124691409111,,13145,,1501822124,691409111,"""gps""",,0,0,42.3059718118,-83.2448277503,156.03199913,"[0.0, 0.0, 0.0, 0.0, 0.0, 0.0, 0.0, 0.0, 0.0]",0
1501822124699368953,,13211,,1501822124,699368953,"""gps""",,0,0,42.305971821,-83.2448277127,156.032005316,"[0.0, 0.0, 0.0, 0.0, 0.0, 0.0, 0.0, 0.0, 0.0]",0
1501822124701416015,,13232,,1501822124,701416015,"""gps""",,0,0,42.3059718302,-83.2448276748,156.032010429,"[0.0, 0.0, 0.0, 0.0, 0.0, 0.0, 0.0, 0.0, 0.0]",0
1501822124709412097,,13290,,1501822124,709412097,"""gps""",,0,0,42.3059718395,-83.2448276367,156.032015021,"[0.0, 0.0, 0.0, 0.0, 0.0, 0.0, 0.0, 0.0, 0.0]",0
1501822124711419105,,13304,,1501822124,711419105,"""gps""",,0,0,42.3059718489,-83.2448275984,156.032017503,"[0.0, 0.0, 0.0, 0.0, 0.0, 0.0, 0.0, 0.0, 0.0]",0
1501822124721447944,,13369,,1501822124,721447944,"""gps""",,0,0,42.3059718678,-83.2448275212,156.032014752,"[0.0, 0.0, 0.0, 0.0, 0.0, 0.0, 0.0, 0.0, 0.0]",0
1501822124729393005,,13434,,1501822124,729393005,"""gps""",,0,0,42.3059718773,-83.2448274822,156.032007866,"[0.0, 0.0, 0.0, 0.0, 0.0, 0.0, 0.0, 0.0, 0.0]",0
1501822124731416940,,13456,,1501822124,731416940,"""gps""",,0,0,42.3059718869,-83.244827443,156.031996619,"[0.0, 0.0, 0.0, 0.0, 0.0, 0.0, 0.0, 0.0, 0.0]",0
1501822124739413976,,13520,,1501822124,739413976,"""gps""",,0,0,42.3059718965,-83.2448274035,156.031982243,"[0.0, 0.0, 0.0, 0.0, 0.0, 0.0, 0.0, 0.0, 0.0]",0
1501822124741419076,,13543,,1501822124,741419076,"""gps""",,0,0,42.3059719062,-83.2448273639,156.031966306,"[0.0, 0.0, 0.0, 0.0, 0.0, 0.0, 0.0, 0.0, 0.0]",0
1501822124749402999,,13606,,1501822124,749402999,"""gps""",,0,0,42.3059719159,-83.244827324,156.031949944,"[0.0, 0.0, 0.0, 0.0, 0.0, 0.0, 0.0, 0.0, 0.0]",0
1501822124751427888,,13629,,1501822124,751427888,"""gps""",,0,0,42.3059719257,-83.2448272838,156.031933594,"[0.0, 0.0, 0.0, 0.0, 0.0, 0.0, 0.0, 0.0, 0.0]",0
1501822124759438991,,13689,,1501822124,759438991,"""gps""",,0,0,42.3059719356,-83.2448272434,156.031916987,"[0.0, 0.0, 0.0, 0.0, 0.0, 0.0, 0.0, 0.0, 0.0]",0
1501822124761420011,,13711,,1501822124,761420011,"""gps""",,0,0,42.3059719455,-83.2448272028,156.031900898,"[0.0, 0.0, 0.0, 0.0, 0.0, 0.0, 0.0, 0.0, 0.0]",0
1501822124769381046,,13768,,1501822124,769381046,"""gps""",,0,0,42.3059719556,-83.244827162,156.031884054,"[0.0, 0.0, 0.0, 0.0, 0.0, 0.0, 0.0, 0.0, 0.0]",0
1501822124789397954,,13850,,1501822124,789397954,"""gps""",,0,0,42.3059719963,-83.2448269963,156.031799972,"[0.0, 0.0, 0.0, 0.0, 0.0, 0.0, 0.0, 0.0, 0.0]",0
1501822124799436092,,13885,,1501822124,799436092,"""gps""",,0,0,42.3059720171,-83.2448269119,156.031751388,"[0.0, 0.0, 0.0, 0.0, 0.0, 0.0, 0.0, 0.0, 0.0]",0
1501822124801419019,,13905,,1501822124,801419019,"""gps""",,0,0,42.3059720276,-83.2448268694,156.031724166,"[0.0, 0.0, 0.0, 0.0, 0.0, 0.0, 0.0, 0.0, 0.0]",0
1501822124809386014,,13972,,1501822124,809386014,"""gps""",,0,0,42.3059720382,-83.2448268266,156.031695107,"[0.0, 0.0, 0.0, 0.0, 0.0, 0.0, 0.0, 0.0, 0.0]",0
1501822124811414957,,13993,,1501822124,811414957,"""gps""",,0,0,42.3059720488,-83.2448267835,156.031664796,"[0.0, 0.0, 0.0, 0.0, 0.0, 0.0, 0.0, 0.0, 0.0]",0
1501822124819421052,,14059,,1501822124,819421052,"""gps""",,0,0,42.3059720595,-83.2448267402,156.031632003,"[0.0, 0.0, 0.0, 0.0, 0.0, 0.0, 0.0, 0.0, 0.0]",0
1501822124821412086,,14079,,1501822124,821412086,"""gps""",,0,0,42.3059720702,-83.2448266966,156.031596835,"[0.0, 0.0, 0.0, 0.0, 0.0, 0.0, 0.0, 0.0, 0.0]",0
1501822124829382896,,14145,,1501822124,829382896,"""gps""",,0,0,42.305972081,-83.2448266528,156.031558928,"[0.0, 0.0, 0.0, 0.0, 0.0, 0.0, 0.0, 0.0, 0.0]",0
1501822124831459999,,14166,,1501822124,831459999,"""gps""",,0,0,42.3059720918,-83.2448266087,156.031518923,"[0.0, 0.0, 0.0, 0.0, 0.0, 0.0, 0.0, 0.0, 0.0]",0
1501822124839380979,,14231,,1501822124,839380979,"""gps""",,0,0,42.3059721027,-83.2448265644,156.031477147,"[0.0, 0.0, 0.0, 0.0, 0.0, 0.0, 0.0, 0.0, 0.0]",0
1501822124841420888,,14252,,1501822124,841420888,"""gps""",,0,0,42.3059721136,-83.2448265198,156.031431724,"[0.0, 0.0, 0.0, 0.0, 0.0, 0.0, 0.0, 0.0, 0.0]",0
1501822124849390983,,14317,,1501822124,849390983,"""gps""",,0,0,42.3059721245,-83.244826475,156.031382226,"[0.0, 0.0, 0.0, 0.0, 0.0, 0.0, 0.0, 0.0, 0.0]",0
1501822124851418972,,14339,,1501822124,851418972,"""gps""",,0,0,42.3059721356,-83.2448264299,156.031328859,"[0.0, 0.0, 0.0, 0.0, 0.0, 0.0, 0.0, 0.0, 0.0]",0
1501822124859375953,,14404,,1501822124,859375953,"""gps""",,0,0,42.3059721466,-83.2448263845,156.031270714,"[0.0, 0.0, 0.0, 0.0, 0.0, 0.0, 0.0, 0.0, 0.0]",0
1501822124861418008,,14427,,1501822124,861418008,"""gps""",,0,0,42.3059721577,-83.2448263388,156.03120844,"[0.0, 0.0, 0.0, 0.0, 0.0, 0.0, 0.0, 0.0, 0.0]",0
1501822124869462013,,14489,,1501822124,869462013,"""gps""",,0,0,42.3059721688,-83.2448262929,156.031142411,"[0.0, 0.0, 0.0, 0.0, 0.0, 0.0, 0.0, 0.0, 0.0]",0
1501822124871419906,,14504,,1501822124,871419906,"""gps""",,0,0,42.30597218,-83.2448262467,156.031073519,"[0.0, 0.0, 0.0, 0.0, 0.0, 0.0, 0.0, 0.0, 0.0]",0
1501822124879394054,,14564,,1501822124,879394054,"""gps""",,0,0,42.3059721912,-83.2448262002,156.031001844,"[0.0, 0.0, 0.0, 0.0, 0.0, 0.0, 0.0, 0.0, 0.0]",0
1501822124881417036,,14587,,1501822124,881417036,"""gps""",,0,0,42.3059722025,-83.2448261535,156.030927248,"[0.0, 0.0, 0.0, 0.0, 0.0, 0.0, 0.0, 0.0, 0.0]",0
1501822124889396905,,14651,,1501822124,889396905,"""gps""",,0,0,42.3059722139,-83.2448261066,156.030850152,"[0.0, 0.0, 0.0, 0.0, 0.0, 0.0, 0.0, 0.0, 0.0]",0
1501822124891431093,,14673,,1501822124,891431093,"""gps""",,0,0,42.3059722253,-83.2448260593,156.030770564,"[0.0, 0.0, 0.0, 0.0, 0.0, 0.0, 0.0, 0.0, 0.0]",0
1501822124899437904,,14737,,1501822124,899437904,"""gps""",,0,0,42.3059722367,-83.2448260118,156.030688465,"[0.0, 0.0, 0.0, 0.0, 0.0, 0.0, 0.0, 0.0, 0.0]",0
1501822124901422023,,14759,,1501822124,901422023,"""gps""",,0,0,42.3059722483,-83.244825964,156.030605104,"[0.0, 0.0, 0.0, 0.0, 0.0, 0.0, 0.0, 0.0, 0.0]",0
1501822124929425001,,14813,,1501822124,929425001,"""gps""",,0,0,42.3059723068,-83.2448257214,156.03017117,"[0.0, 0.0, 0.0, 0.0, 0.0, 0.0, 0.0, 0.0, 0.0]",0
1501822124931466102,,14833,,1501822124,931466102,"""gps""",,0,0,42.3059723187,-83.2448256721,156.030083607,"[0.0, 0.0, 0.0, 0.0, 0.0, 0.0, 0.0, 0.0, 0.0]",0
1501822124939445018,,14899,,1501822124,939445018,"""gps""",,0,0,42.3059723307,-83.2448256225,156.029995926,"[0.0, 0.0, 0.0, 0.0, 0.0, 0.0, 0.0, 0.0, 0.0]",0
1501822124941442012,,14919,,1501822124,941442012,"""gps""",,0,0,42.3059723428,-83.2448255727,156.029909163,"[0.0, 0.0, 0.0, 0.0, 0.0, 0.0, 0.0, 0.0, 0.0]",0
1501822124949404001,,14977,,1501822124,949404001,"""gps""",,0,0,42.3059723549,-83.2448255226,156.029823342,"[0.0, 0.0, 0.0, 0.0, 0.0, 0.0, 0.0, 0.0, 0.0]",0
1501822124951421022,,14996,,1501822124,951421022,"""gps""",,0,0,42.3059723671,-83.2448254723,156.029738816,"[0.0, 0.0, 0.0, 0.0, 0.0, 0.0, 0.0, 0.0, 0.0]",0
1501822124959393978,,15063,,1501822124,959393978,"""gps""",,0,0,42.3059723793,-83.2448254217,156.02965494,"[0.0, 0.0, 0.0, 0.0, 0.0, 0.0, 0.0, 0.0, 0.0]",0
1501822124961417913,,15084,,1501822124,961417913,"""gps""",,0,0,42.3059723915,-83.2448253709,156.029572125,"[0.0, 0.0, 0.0, 0.0, 0.0, 0.0, 0.0, 0.0, 0.0]",0
1501822124969415903,,15149,,1501822124,969415903,"""gps""",,0,0,42.3059724038,-83.2448253198,156.029490716,"[0.0, 0.0, 0.0, 0.0, 0.0, 0.0, 0.0, 0.0, 0.0]",0
1501822124971474885,,15172,,1501822124,971474885,"""gps""",,0,0,42.3059724162,-83.2448252684,156.02941238,"[0.0, 0.0, 0.0, 0.0, 0.0, 0.0, 0.0, 0.0, 0.0]",0
1501822124979422092,,15235,,1501822124,979422092,"""gps""",,0,0,42.3059724286,-83.2448252168,156.029335538,"[0.0, 0.0, 0.0, 0.0, 0.0, 0.0, 0.0, 0.0, 0.0]",0
1501822124981441020,,15258,,1501822124,981441020,"""gps""",,0,0,42.3059724412,-83.2448251649,156.02925986,"[0.0, 0.0, 0.0, 0.0, 0.0, 0.0, 0.0, 0.0, 0.0]",0
1501822124989412069,,15321,,1501822124,989412069,"""gps""",,0,0,42.3059724537,-83.2448251128,156.029185038,"[0.0, 0.0, 0.0, 0.0, 0.0, 0.0, 0.0, 0.0, 0.0]",0
1501822124991424083,,15344,,1501822124,991424083,"""gps""",,0,0,42.3059724664,-83.2448250605,156.029112077,"[0.0, 0.0, 0.0, 0.0, 0.0, 0.0, 0.0, 0.0, 0.0]",0
1501822124999411106,,15407,,1501822124,999411106,"""gps""",,0,0,42.3059724791,-83.2448250079,156.029040864,"[0.0, 0.0, 0.0, 0.0, 0.0, 0.0, 0.0, 0.0, 0.0]",0
1501822125001425981,,15430,,1501822125,1425981,"""gps""",,0,0,42.3059724918,-83.2448249551,156.028971495,"[0.0, 0.0, 0.0, 0.0, 0.0, 0.0, 0.0, 0.0, 0.0]",0
1501822125009447097,,15494,,1501822125,9447097,"""gps""",,0,0,42.3059725046,-83.2448249021,156.028905266,"[0.0, 0.0, 0.0, 0.0, 0.0, 0.0, 0.0, 0.0, 0.0]",0
1501822125019403934,,15531,,1501822125,19403934,"""gps""",,0,0,42.3059725304,-83.2448247952,156.028779607,"[0.0, 0.0, 0.0, 0.0, 0.0, 0.0, 0.0, 0.0, 0.0]",0
1501822125039395093,,15559,,1501822125,39395093,"""gps""",,0,0,42.3059725827,-83.2448245785,156.028554079,"[0.0, 0.0, 0.0, 0.0, 0.0, 0.0, 0.0, 0.0, 0.0]",0
1501822125041435003,,15580,,1501822125,41435003,"""gps""",,0,0,42.3059725959,-83.2448245237,156.028504623,"[0.0, 0.0, 0.0, 0.0, 0.0, 0.0, 0.0, 0.0, 0.0]",0
1501822125049391031,,15629,,1501822125,49391031,"""gps""",,0,0,42.3059726091,-83.2448244687,156.02845795,"[0.0, 0.0, 0.0, 0.0, 0.0, 0.0, 0.0, 0.0, 0.0]",0
1501822125051435947,,15650,,1501822125,51435947,"""gps""",,0,0,42.3059726224,-83.2448244135,156.028413681,"[0.0, 0.0, 0.0, 0.0, 0.0, 0.0, 0.0, 0.0, 0.0]",0
1501822125059410095,,15709,,1501822125,59410095,"""gps""",,0,0,42.3059726358,-83.244824358,156.028372651,"[0.0, 0.0, 0.0, 0.0, 0.0, 0.0, 0.0, 0.0, 0.0]",0
1501822125061434984,,15726,,1501822125,61434984,"""gps""",,0,0,42.3059726492,-83.2448243023,156.028334286,"[0.0, 0.0, 0.0, 0.0, 0.0, 0.0, 0.0, 0.0, 0.0]",0
1501822125069425106,,15784,,1501822125,69425106,"""gps""",,0,0,42.3059726627,-83.2448242463,156.028298243,"[0.0, 0.0, 0.0, 0.0, 0.0, 0.0, 0.0, 0.0, 0.0]",0
1501822125071439027,,15801,,1501822125,71439027,"""gps""",,0,0,42.3059726761,-83.2448241901,156.028264683,"[0.0, 0.0, 0.0, 0.0, 0.0, 0.0, 0.0, 0.0, 0.0]",0
1501822125079435110,,15856,,1501822125,79435110,"""gps""",,0,0,42.3059726897,-83.2448241337,156.028233899,"[0.0, 0.0, 0.0, 0.0, 0.0, 0.0, 0.0, 0.0, 0.0]",0
1501822125081479072,,15878,,1501822125,81479072,"""gps""",,0,0,42.3059727033,-83.2448240769,156.028205671,"[0.0, 0.0, 0.0, 0.0, 0.0, 0.0, 0.0, 0.0, 0.0]",0
1501822125089399099,,15942,,1501822125,89399099,"""gps""",,0,0,42.3059727169,-83.24482402,156.028179683,"[0.0, 0.0, 0.0, 0.0, 0.0, 0.0, 0.0, 0.0, 0.0]",0
1501822125091439008,,15964,,1501822125,91439008,"""gps""",,0,0,42.3059727305,-83.2448239628,156.028156345,"[0.0, 0.0, 0.0, 0.0, 0.0, 0.0, 0.0, 0.0, 0.0]",0
1501822125099406957,,16028,,1501822125,99406957,"""gps""",,0,0,42.3059727443,-83.2448239054,156.02813639,"[0.0, 0.0, 0.0, 0.0, 0.0, 0.0, 0.0, 0.0, 0.0]",0
1501822125101430892,,16051,,1501822125,101430892,"""gps""",,0,0,42.305972758,-83.2448238478,156.028119062,"[0.0, 0.0, 0.0, 0.0, 0.0, 0.0, 0.0, 0.0, 0.0]",0
1501822125109392881,,16115,,1501822125,109392881,"""gps""",,0,0,42.3059727718,-83.2448237899,156.028104946,"[0.0, 0.0, 0.0, 0.0, 0.0, 0.0, 0.0, 0.0, 0.0]",0
1501822125119446039,,16164,,1501822125,119446039,"""gps""",,0,0,42.3059727997,-83.2448236734,156.028085498,"[0.0, 0.0, 0.0, 0.0, 0.0, 0.0, 0.0, 0.0, 0.0]",0
1501822125121454954,,16186,,1501822125,121454954,"""gps""",,0,0,42.3059728136,-83.2448236147,156.028078015,"[0.0, 0.0, 0.0, 0.0, 0.0, 0.0, 0.0, 0.0, 0.0]",0
1501822125129422903,,16250,,1501822125,129422903,"""gps""",,0,0,42.3059728277,-83.2448235558,156.028072623,"[0.0, 0.0, 0.0, 0.0, 0.0, 0.0, 0.0, 0.0, 0.0]",0
1501822125131443977,,16272,,1501822125,131443977,"""gps""",,0,0,42.3059728418,-83.2448234967,156.028070914,"[0.0, 0.0, 0.0, 0.0, 0.0, 0.0, 0.0, 0.0, 0.0]",0
1501822125139406919,,16336,,1501822125,139406919,"""gps""",,0,0,42.3059728559,-83.2448234373,156.028073693,"[0.0, 0.0, 0.0, 0.0, 0.0, 0.0, 0.0, 0.0, 0.0]",0
1501822125141437053,,16358,,1501822125,141437053,"""gps""",,0,0,42.3059728701,-83.2448233777,156.028080346,"[0.0, 0.0, 0.0, 0.0, 0.0, 0.0, 0.0, 0.0, 0.0]",0
1501822125149424076,,16424,,1501822125,149424076,"""gps""",,0,0,42.3059728843,-83.2448233179,156.028089545,"[0.0, 0.0, 0.0, 0.0, 0.0, 0.0, 0.0, 0.0, 0.0]",0
1501822125151436090,,16445,,1501822125,151436090,"""gps""",,0,0,42.3059728986,-83.2448232579,156.028100186,"[0.0, 0.0, 0.0, 0.0, 0.0, 0.0, 0.0, 0.0, 0.0]",0
1501822125159425020,,16488,,1501822125,159425020,"""gps""",,0,0,42.305972913,-83.2448231976,156.028111848,"[0.0, 0.0, 0.0, 0.0, 0.0, 0.0, 0.0, 0.0, 0.0]",0
